site_id,name,latitude,longitude,operator,n_refill_points,max_power_kw,connector_types,type_of_site,Carretera,Tipo_de_via
QOBEZUWVG3TQTTF0J26K,E-V-MarenyDeBarraquetes-001,39.203903,-0.316866,IBERDROLA CLIENTES S.A.U,6,22.0,iec62196T2,openSpace,N-332,Carretera convencional
AAJSXDR3GXMLFSKSPG0Y,Aduriz Av. Burgos,42.929886,-3.483091,ADURIZ ENERGIA SLU,4,180.0,iec62196T2COMBO,openSpace,N-629,Carretera convencional
2023002563,62130031400004,43.45312,-3.850587,"ENDESA X WAY, S.L.",3,50.0,chademo|iec62196T2|iec62196T2COMBO,openSpace,N-611,Carretera convencional
2023002554,62130031400009,43.45312,-3.850587,"ENDESA X WAY, S.L.",3,50.0,chademo|iec62196T2|iec62196T2COMBO,openSpace,N-611,Carretera convencional
2024002317,GI-Jonquera-003,42.40247,2.87942,IBERDROLA CLIENTES S.A.U,2,50.0,chademo|iec62196T2COMBO,,N-2,Multicarril
X1AOQHZSQKL9CBYWLDU6,E-OU-Viloira-001,42.417313,-6.997666,IBERDROLA CLIENTES S.A.U,4,22.0,iec62196T2,openSpace,N-536,Carretera convencional
2024003416,O-Llanes-006,43.438095,-4.871545,IBERDROLA CLIENTES S.A.U,4,50.0,chademo|iec62196T2|iec62196T2COMBO,,A-8,Autopista libre\Autovía
C3HANE3QEG85ISLD5HSJ,E-TO-BarrioDeSantaMaria-001,39.958126,-4.844052,IBERDROLA CLIENTES S.A.U,4,22.0,iec62196T2,openSpace,N-502A,Carretera convencional
SZAJQ2HV6UVDVSOMMTGA,"Repsol ES, LOS BREZOS",42.34085,-3.766363,REPSOL SOLUCIONES ENERGÉTICAS SA,1,50.0,chademo|iec62196T2|iec62196T2COMBO,openSpace,N-120,Carretera convencional
2023002873,22XP22T3KKJAK00121,37.925247,-6.71536,"ENDESA X WAY, S.L.",2,22.0,iec62196T2,openSpace,N-433,Carretera convencional
2024005150,61945052640015,41.05065,-0.173693,"ENDESA X WAY, S.L.",3,50.0,chademo|iec62196T2|iec62196T2COMBO,openSpace,N-232,Carretera convencional
GYB2JFK7SRJJPFFM7NVA,"Repsol ES, Fertol",41.697346,-6.342305,REPSOL SOLUCIONES ENERGÉTICAS SA,1,50.0,chademo|iec62196T2|iec62196T2COMBO,openSpace,N-122,Carretera convencional
2024004471,Mesón La Gran Familia,38.62855,-6.369484,WENEA EMOBILITY SERVICES S.L.,7,150.0,chademo|iec62196T2|iec62196T2COMBO,onstreet,A-66,Autopista libre\Autovía
L1INJ4M4EM9B9IVVSHXC,"Repsol, DC - Cañaveral",39.792778,-6.388707,REPSOL SOLUCIONES ENERGÉTICAS SA,2,22.17,iec62196T2,onstreet,N-630,Carretera convencional
2CFBTRB79KMR6KIVC4MF,"Repsol ES, Aristoil Global S.L",42.3579,-5.328425,REPSOL SOLUCIONES ENERGÉTICAS SA,1,50.0,chademo|iec62196T2|iec62196T2COMBO,openSpace,N-601,Carretera convencional
5F8YTKQOHZIDYDP2ZH77,"Repsol ES, Lazcaba S.L.",38.926872,-6.322177,REPSOL SOLUCIONES ENERGÉTICAS SA,1,50.0,chademo|iec62196T2|iec62196T2COMBO,openSpace,N-5,Carretera convencional
2024004068,La Albuera,38.71658,-6.824425,WENEA EMOBILITY SERVICES S.L.,1,7.4,iec62196T2,onstreet,N-432A,Carretera convencional
2025000660,Hortigüela Calle Espolón - 01,42.0695,-3.4271,CHARGING TOGETHER SL,2,100.0,iec62196T2COMBO,onstreet,N-234A,Carretera convencional
2024004164,KIA Hipergar,42.56552,-6.666784,WENEA EMOBILITY SERVICES S.L.,4,100.0,chademo|iec62196T2|iec62196T2COMBO,onstreet,N-6,Carretera convencional
2024000310,LE-ToraldelosVados-001,42.544025,-6.78222,IBERDROLA CLIENTES S.A.U,2,50.0,chademo|iec62196T2|iec62196T2COMBO,onstreet,N-120,Carretera convencional
PV5I8IA2Q4BAKWTXM4LX,Hotel La Colina,41.559,-4.870671,"Wenea Services Spain, S.L.",4,100.0,chademo|iec62196T2|iec62196T2COMBO,onstreet,A-62,Autopista libre\Autovía
U9BZSJP1ZPLNYVRU86TU,Gandesa - LAFON EdRR 2 Estació,41.05751,0.44118,"Etecnic Movilidad Electrica, SRL",2,55.0,chademo|iec62196T2|iec62196T2COMBO,other,N-420,Carretera convencional
SLFLYA3MGEVUASJNPHNS,"Repsol ES, CRED AMOREBIETA",43.2288,-2.753252,REPSOL SOLUCIONES ENERGÉTICAS SA,1,50.0,chademo|iec62196T2|iec62196T2COMBO,openSpace,N-634,
PZD9R1LTZUK7KDAZCOSJ,"Repsol ES, Gex S.L",41.115513,1.222382,REPSOL SOLUCIONES ENERGÉTICAS SA,1,50.0,chademo|iec62196T2|iec62196T2COMBO,openSpace,N-340,Carretera convencional
2024003916,DIPBA Talavera la Real,38.87999,-6.773347,WENEA EMOBILITY SERVICES S.L.,2,22.0,iec62196T2,onstreet,N-5,Carretera convencional
2024003944,DIPBA Santa Marta de los Barros,38.61547,-6.631389,WENEA EMOBILITY SERVICES S.L.,2,22.0,iec62196T2,onstreet,N-432A,Carretera convencional
2024006717,AYUNTAMIENTO DE CASAS BAJAS,40.022846,-1.26065,"FENIE ENERGIA, SA",1,7.4,domesticF|iec62196T2,openSpace,N-330A,Carretera convencional
2024004660,SHELL CAPMANY MONTAÑA (N),42.38007,2.8905396,Prio Recharge Sl.,2,60.0,iec62196T2COMBO,other,N-2,Carretera convencional
2023003632,61943050290012,42.101185,0.485232,"ENDESA X WAY, S.L.",3,50.0,chademo|iec62196T2|iec62196T2COMBO,openSpace,N-230,Carretera convencional
2024003996,Asador Arraiz,43.24151,-2.960092,WENEA EMOBILITY SERVICES S.L.,6,50.0,chademo|iec62196T2|iec62196T2COMBO,onstreet,AP-8,Autopista peaje
2024006415,"Barbastro, Spain",42.03384,0.104106,Tesla Spain SLU,8,250.0,iec62196T2COMBO,openSpace,N-240,Carretera convencional
0VLWWSNL8OPWDGHXWPTY,"Repsol ES, Lucia E Hijos Villa Gutierrez",39.083492,-4.616153,REPSOL SOLUCIONES ENERGÉTICAS SA,1,50.0,chademo|iec62196T2|iec62196T2COMBO,openSpace,N-430,Carretera convencional
2024000435,NA-Ezcabarte-001,42.856155,-1.619069,IBERDROLA CLIENTES S.A.U,1,50.0,chademo|iec62196T2COMBO,onstreet,N-121-A,Carretera convencional
8GPCXJTSMD3UF0OQQNBP,"Repsol, DC - Cabezuela del Valle",40.191193,-5.806582,REPSOL SOLUCIONES ENERGÉTICAS SA,2,22.17,iec62196T2,onstreet,N-110,Carretera convencional
YNWKDSGSOOJPYSQI1LFY,Consum - Casas-Ibáñez,39.28478,-1.47229,CHARGING TOGETHER SL,2,100.0,chademo|iec62196T2COMBO,openSpace,N-322A,Carretera convencional
S9CUQAPYVU3XXQLW3LAW,"Repsol ES, MAYFAL S.L.",43.484028,-5.430796,REPSOL SOLUCIONES ENERGÉTICAS SA,1,50.0,chademo|iec62196T2|iec62196T2COMBO,openSpace,N-632,Carretera convencional
2024003566,Hotel IBIS Styles Figueres Ronda,42.257084,2.963613,Punto Recargas SL,3,90.0,chademo|iec62196T2|iec62196T2COMBO,onstreet,N-2A,Carretera convencional
YOIQLXDWAUXBACLO28LP,"Repsol ES, Crisfal Lusopor, S.L.",39.409634,-7.241979,REPSOL SOLUCIONES ENERGÉTICAS SA,1,50.0,chademo|iec62196T2|iec62196T2COMBO,openSpace,N-521,Carretera convencional
LZDYTDNHPUHTJULN7GKF,"Repsol ES, CRED Bejar I",40.384197,-5.76269,REPSOL SOLUCIONES ENERGÉTICAS SA,1,50.0,chademo|iec62196T2|iec62196T2COMBO,openSpace,N-630A,Carretera convencional
KWZHDZLGXUK0NK7CYFJA,A-ELCHE-027,38.292107,-0.591667,IBERDROLA CLIENTES S.A.U,2,50.0,iec62196T2COMBO,,N-340,Carretera convencional
2023003212,61934038200011,41.558784,2.254843,"ENDESA X WAY, S.L.",3,50.0,chademo|iec62196T2|iec62196T2COMBO,openSpace,AP-7N,Autopista peaje
2024002244,A-Torrevieja-008,37.929184,-0.73902,IBERDROLA CLIENTES S.A.U,4,22.0,iec62196T2,openSpace,AP-7N,Autopista peaje
2024003829,SO-NAVALENO-001,41.83688,-3.00651,IBERDROLA CLIENTES S.A.U,4,50.0,chademo|iec62196T2|iec62196T2COMBO,onstreet,N-234,Carretera convencional
2024005135,12044699570001,37.13281,-4.696101,"ENDESA X WAY, S.L.",3,50.0,chademo|iec62196T2|iec62196T2COMBO,openSpace,A-92,Autopista libre\Autovía
2025000411,O-VEGADEO-02,43.464363,-7.051358,IBERDROLA CLIENTES S.A.U,2,7.4,iec62196T2,,N-640,Carretera convencional
W0920HMPET4EDNKEZ76O,TotalEnergies - Asador Arraiz,43.241497,-2.960112,"TotalEnergies Charging Services España, SLU",3,50.0,chademo|iec62196T2|iec62196T2COMBO,onstreet,AP-8,Autopista peaje
EQCCEDSKKITXDEUGRNCU,E-A-Elche/elx-104,38.261784,-0.708189,IBERDROLA CLIENTES S.A.U,2,22.0,iec62196T2,openSpace,N-340,Carretera convencional
2023003140,21XP22T3KKJAK00519,37.675327,-4.555193,"ENDESA X WAY, S.L.",2,22.0,iec62196T2,openSpace,N-432,Carretera convencional
2024000470,E-AV-SanPedroDelArroyo-001,40.801815,-4.870006,IBERDROLA CLIENTES S.A.U,2,22.0,iec62196T2,onstreet,N-501,Carretera convencional
2024000314,L-BellverdeCerdanya-002,42.37341,1.775243,IBERDROLA CLIENTES S.A.U,4,50.0,chademo|iec62196T2|iec62196T2COMBO,openSpace,N-260,Carretera convencional
GAYHZGF67PSDXZI6NS56,Iberdoex - Los Pantanos,39.17104,-5.047223,CHARGING TOGETHER SL,2,100.0,chademo|iec62196T2COMBO,onstreet,N-502,Carretera convencional
QXHUZRV2RPAVII7M0NLY,"Repsol ES, Rosa Maria Folla Fernandez",42.417934,-6.824132,REPSOL SOLUCIONES ENERGÉTICAS SA,1,50.0,chademo|iec62196T2|iec62196T2COMBO,openSpace,N-536,Carretera convencional
2023003221,61922022550002,42.4084,0.742,"ENDESA X WAY, S.L.",3,50.0,chademo|iec62196T2|iec62196T2COMBO,openSpace,N-230,Carretera convencional
2024004882,HOTEL CIUDAD DE ALCAÑIZ SA,41.052532,-0.1533179,HOTEL CIUDAD DE ALCAÑIZ SA,1,22.0,iec62196T2,inBuilding,N-232A,Carretera convencional
RDBVI6H5HOTIPVCOGUGH,E-T-Campsa-001,41.114937,1.205527,IBERDROLA CLIENTES S.A.U,6,7.4,iec62196T2,openSpace,N-340,Carretera convencional
2024006401,"Aranda de Duero, Spain",41.623672,-3.686607,Tesla Spain SLU,8,150.0,iec62196T2|iec62196T2COMBO,openSpace,N-1,Carretera convencional
2025000245,Telpark - Passeig Nou Centre,42.266502,2.9579804,MAKSU ESPAÑA SL,7,22.0,iec62196T2,inBuilding,N-2A,Carretera convencional
2024007472,San Vicente de la Barquera,43.383804,-4.399194,"FENIE ENERGIA, SA",1,7.4,domesticF|iec62196T2,onstreet,N-634,Carretera convencional
IVSZQXQX72PGG21T12OT,"Repsol, DC - Valencia de Alcántara",39.409443,-7.246477,REPSOL SOLUCIONES ENERGÉTICAS SA,2,22.17,iec62196T2,onstreet,N-521,Carretera convencional
2024004193,Hotel Elba Estepona,36.40881,-5.186244,WENEA EMOBILITY SERVICES S.L.,4,22.0,iec62196T2,onstreet,A-7S,Multicarril
GSWOUB0KTEWRQKY3E7LU,"Mercadona, Av. Santiago, Ourense",42.348778,-7.868943,REPSOL SOLUCIONES ENERGÉTICAS SA,2,22.17,iec62196T2,openSpace,N-525,Carretera convencional
2024004835,JANEIRO RANILLA SUMINISTROS ALTO LEON SL,42.636784,-5.589879,"JANEIRO RANILLA SUMINISTROS ALTOLEON, S.L.",1,50.0,iec62196T1COMBO,other,N-630,Carretera convencional
ERKDT9CFOPCWTNPQOUWT,"Av. Alcalde José Ramírez Bethencourt, 12",28.11415,-15.417791,Consejo Insular de la Energía de Gran Canaria,3,50.0,chademo|iec62196T2|iec62196T2COMBO,onstreet,GC-1 AM,Multicarril
DMLQOCUBWNW43SNXYMM1,"Repsol ES, Petronalca S.L.",43.219044,-2.408673,REPSOL SOLUCIONES ENERGÉTICAS SA,1,50.0,chademo|iec62196T2|iec62196T2COMBO,openSpace,N-634,
2024000888,SO-BurgodeOsma-004,41.587654,-3.065255,IBERDROLA CLIENTES S.A.U,2,22.0,iec62196T2,openSpace,N-122,Carretera convencional
2025000566,Consum - Elche,38.26141,-0.712164,CHARGING TOGETHER SL,2,50.0,iec62196T2COMBO,openSpace,N-340,Carretera convencional
YDUYM4PW73SXLTIASGFW,"Repsol ES, Abós",42.56688,-0.55431,REPSOL SOLUCIONES ENERGÉTICAS SA,1,50.0,chademo|iec62196T2|iec62196T2COMBO,openSpace,N-330A,Carretera convencional
WQGHP5OOP5CPWZJHV8DP,TotalEnergies - Hotel Narcea,43.355587,-4.112814,"TotalEnergies Charging Services España, SLU",6,50.0,chademo|iec62196T2|iec62196T2COMBO,onstreet,N-634,Carretera convencional
2024002373,E-S-Santander-007,43.45054,-3.860393,IBERDROLA CLIENTES S.A.U,2,50.0,iec62196T2|iec62196T2COMBO,,N-611,Carretera convencional
6OL5UKEESEHYJLBNZJLK,"Repsol ES, Medina y Valero",39.05966,-1.053334,REPSOL SOLUCIONES ENERGÉTICAS SA,1,50.0,chademo|iec62196T2|iec62196T2COMBO,openSpace,N-330,Carretera convencional
2024004770,E-BI-Berriz-002,43.16579,-2.58226,IBERDROLA CLIENTES S.A.U,2,22.0,iec62196T2,,N-634,
LKTMG1R60N6BTRJMHFKI,"Repsol ES, Fuentes De Ebro",41.51486,-0.636486,REPSOL SOLUCIONES ENERGÉTICAS SA,1,50.0,chademo|iec62196T2|iec62196T2COMBO,openSpace,N-232A,Carretera convencional
ORFKDTBASRVFXWBFWHQW,"Repsol ES, CRED CASTILLETE",38.69783,-4.10576,REPSOL SOLUCIONES ENERGÉTICAS SA,1,50.0,chademo|iec62196T2|iec62196T2COMBO,openSpace,N-420,Carretera convencional
2024002234,E-A-Altea-008,38.6201,-0.02806,IBERDROLA CLIENTES S.A.U,2,22.0,iec62196T2,onstreet,N-332,Carretera convencional
2024000781,E-S-Camargo-002,43.439312,-3.891163,IBERDROLA CLIENTES S.A.U,4,22.0,iec62196T2,,N-611,Carretera convencional
VUYXHYK5FKKSQIVZITAX,AN Energéticos Castejón,42.179222,-1.69661,CHARGING TOGETHER SL,2,150.0,iec62196T2COMBO,onstreet,N-113,Carretera convencional
HQVF8R5I19C00VPX3AIF,"Repsol ES, CRED Cardeñajimeno",42.341297,-3.612233,REPSOL SOLUCIONES ENERGÉTICAS SA,2,50.0,chademo|iec62196T2|iec62196T2COMBO,openSpace,N-120,Carretera convencional
2024006735,HYC23BZ0933A-,42.73453,-1.633457,"CEPSA COMERCIAL PETRÓLEO,S.A.U.",1,150.0,iec62196T2COMBO,other,N-121,
2024004013,Hotel Narcea,43.355515,-4.112311,WENEA EMOBILITY SERVICES S.L.,6,50.0,chademo|iec62196T2|iec62196T2COMBO,onstreet,N-634,Carretera convencional
2024000222,SA-Bejar-002,40.388157,-5.751917,IBERDROLA CLIENTES S.A.U,4,50.0,chademo|iec62196T2|iec62196T2COMBO,onstreet,N-630A,Carretera convencional
RLWD3ELHW6SDAVSHPM21,Alcampo - Vilagarcía de Arousa,42.594414,-8.755006,Punto Recargas SL,6,90.0,chademo|iec62196T2COMBO,onstreet,N-640A,Carretera convencional
2024006479,ACCIONA - La Muga,42.37301,1.7629805,ACCIONA Recarga,2,50.0,chademo|iec62196T2|iec62196T2COMBO,onstreet,N-260,Carretera convencional
LJOTHCFMQWJ8XLLARE6O,"Repsol ES, El Helmántico",41.017372,-5.67022,REPSOL SOLUCIONES ENERGÉTICAS SA,1,50.0,chademo|iec62196T2|iec62196T2COMBO,openSpace,N-630,Carretera convencional
2FWLVF5MZAX4XUJXOIK7,TotalEnergies - Rest. Canoas La Ribera,43.430923,-5.062519,"TotalEnergies Charging Services España, SLU",6,50.0,chademo|iec62196T2|iec62196T2COMBO,onstreet,N-634,Carretera convencional
AAXTOYCXBSEWW2R3EXXM,TotalEnergies - Hostal El Botero,40.7852,-1.34745,"TotalEnergies Charging Services España, SLU",4,100.0,chademo|iec62196T2|iec62196T2COMBO,onstreet,N-234,Carretera convencional
NQFYJ6JEKHZFQ89JTEOK,"Repsol ES, Verin S.A. IZDA.",42.019314,-7.608592,REPSOL SOLUCIONES ENERGÉTICAS SA,1,50.0,chademo|iec62196T2|iec62196T2COMBO,openSpace,N-525,Carretera convencional
2024006676,E-PO-Pontevedra-002,42.440037,-8.618166,IBERDROLA CLIENTES S.A.U,2,150.0,iec62196T2COMBO,,N-541,Carretera convencional
2025000618,VEPERSA PONTEVEDRA - CONCESIONARIO AUDI,42.440037,-8.618166,CHARGING TOGETHER SL,2,150.0,iec62196T2COMBO,,N-541,Carretera convencional
A1C0MXXCJMJQOGSPQQYF,Ap. BSM - Sant Genís,41.42686,2.14359,"BARCELONA DE SERVEIS MUNICIPALS, SA",10,7.2,domesticF|iec62196T2,inBuilding,B-20,Autopista libre\Autovía
2024007230,Sant Genís-Vall d´Hebron,41.42686,2.14359,"BARCELONA DE SERVEIS MUNICIPALS, SA",7,3.6,domesticF|iec62196T2,inBuilding,B-20,Autopista libre\Autovía
LU1K9P01QAH6MHAI7JPA,"Repsol ES, E.S. Valiño J.R.S.L.",42.930157,-8.144087,REPSOL SOLUCIONES ENERGÉTICAS SA,1,6.9,domesticF|iec62196T2,openSpace,N-547,Carretera convencional
V6A8O5P3A47PTZHTZDYJ,"Repsol ES, Santa Cruz de Mudela II",38.635555,-3.471584,REPSOL SOLUCIONES ENERGÉTICAS SA,1,50.0,chademo|iec62196T2|iec62196T2COMBO,openSpace,A-4,Autopista libre\Autovía
2024004072,Rest. Las Vegas,39.287163,-6.320935,WENEA EMOBILITY SERVICES S.L.,7,240.0,chademo|iec62196T2|iec62196T2COMBO,onstreet,N-630,Carretera convencional
RCR95BNRHIMWNHB0HN4N,"Repsol ES, Zarautz S.A",43.28479,-2.158873,REPSOL SOLUCIONES ENERGÉTICAS SA,1,50.0,chademo|iec62196T2|iec62196T2COMBO,openSpace,N-634,
1ST9LXXEE8BAMPXXTFRW,LAG OLEIROS SLU,43.328884,-8.366269,LAG OLEIROS SLU,1,42.0,chademo,openSpace,AC-12,Multicarril
2024004092,Rest. Can Costa,42.24087,2.970646,WENEA EMOBILITY SERVICES S.L.,4,150.0,chademo|iec62196T2|iec62196T2COMBO,onstreet,N-2A,Carretera convencional
AHMAIA7U3FMBTQ7K7AKQ,"Repsol ES, TERA GASOLINERA SL",41.996254,-6.025719,REPSOL SOLUCIONES ENERGÉTICAS SA,1,50.0,chademo|iec62196T2|iec62196T2COMBO,openSpace,N-525,Carretera convencional
2024000575,BU-Belorado-001,42.418762,-3.191837,IBERDROLA CLIENTES S.A.U,2,50.0,chademo|iec62196T2COMBO,onstreet,N-120,Carretera convencional
GWZ9CBVAXPWWC7DQGZWN,"Repsol ES, Discarpe S.L",41.60235,-4.115048,REPSOL SOLUCIONES ENERGÉTICAS SA,1,50.0,chademo|iec62196T2|iec62196T2COMBO,openSpace,N-122,Carretera convencional
EUSA4YLJCJIMZZJXCPZU,OU-Ourense-007,42.355373,-7.905144,IBERDROLA CLIENTES S.A.U,4,50.0,chademo|iec62196T2|iec62196T2COMBO,onstreet,N-120,Multicarril
YJCHQJJ4P7NYAJ0V5LG1,NIMA GRUP - HOTEL TARRACOPARK- INGETEAM EdRR 1,41.115192,1.218196,"Etecnic Movilidad Electrica, SRL",4,55.0,chademo|iec62196T2|iec62196T2COMBO,other,N-340,Carretera convencional
RSRQQXR46W8BOPKZBF04,"Repsol ES, CRED Buenos AirES",40.955204,-5.706421,REPSOL SOLUCIONES ENERGÉTICAS SA,1,50.0,chademo|iec62196T2|iec62196T2COMBO,openSpace,N-630,Carretera convencional
UM14RJIVMUNH7XL5GIZW,"Repsol ES, CRED Motilla Del Palancar",39.56518,-1.913989,REPSOL SOLUCIONES ENERGÉTICAS SA,1,50.0,chademo|iec62196T2|iec62196T2COMBO,openSpace,N-3,Carretera convencional
TDDNMTUFXCTYBMAHDN3O,"Repsol ES, Maset S.A.",42.260727,2.949918,REPSOL SOLUCIONES ENERGÉTICAS SA,1,50.0,chademo|iec62196T2|iec62196T2COMBO,openSpace,N-260,Carretera convencional
2024004048,Hotel Rest. Casa Celesto,43.38934,-6.009545,WENEA EMOBILITY SERVICES S.L.,3,50.0,chademo|iec62196T2|iec62196T2COMBO,onstreet,N-634,Carretera convencional
Q5PFHUSAKY58NCL15R4E,Muebles La Factoria - Asturias,43.383102,-5.748537,Punto Recargas SL,4,100.0,chademo|iec62196T2COMBO,onstreet,N-634,Carretera convencional
LLZ4DMIH28SEBHGZLRW6,"Repsol ES, Alas",39.48121,-0.459635,REPSOL SOLUCIONES ENERGÉTICAS SA,1,50.0,chademo|iec62196T2|iec62196T2COMBO,openSpace,A-3,Autopista libre\Autovía
ESGTPP9LUNBMQSRFYQ9M,Rest. Nou Urbisol,41.599354,1.701087,"WENEA HIGHWAYS OESTE, SLU",2,100.0,iec62196T2COMBO,onstreet,A-2,Autopista libre\Autovía
698RN1FKRHBKLZRSPADA,"Repsol ES, Los Valos S.L.U",42.236645,-8.595355,REPSOL SOLUCIONES ENERGÉTICAS SA,1,50.0,chademo|iec62196T2|iec62196T2COMBO,openSpace,N-550,Carretera convencional
MYPOYUOF5LTPPLZTAIIS,"Repsol ES, LORENA Y NATALIA",39.53354,-1.600131,REPSOL SOLUCIONES ENERGÉTICAS SA,1,50.0,chademo|iec62196T2|iec62196T2COMBO,openSpace,N-3,Carretera convencional
ZXJDH3FSHGU1V1UCEMAA,"Repsol ES, Petro Garrotxa S.L.",42.235676,2.29189,REPSOL SOLUCIONES ENERGÉTICAS SA,1,50.0,chademo|iec62196T2|iec62196T2COMBO,openSpace,N-260,Carretera convencional
7HISQ0TPTGGK684QVW1V,"Repsol ES, CRED Tarragona",41.11639,1.228123,REPSOL SOLUCIONES ENERGÉTICAS SA,2,50.0,chademo|iec62196T2|iec62196T2COMBO,openSpace,N-340,Carretera convencional
2024005029,C6E15BCC21ZKDYUAXR,28.121632,-15.424817,"ENDESA X WAY, S.L.",2,150.0,iec62196T2COMBO,openSpace,GC-1 AM,Multicarril
HC6FVMJTKGVUBNFL9HEG,FORD TARRAGONA - INGETEAM EdRSR  3,41.1164,1.230362,"Etecnic Movilidad Electrica, SRL",2,22.0,iec62196T2,other,N-340,Carretera convencional
2024005767,62226028860005,42.34644,1.42802,"ENDESA X WAY, S.L.",3,50.0,chademo|iec62196T2|iec62196T2COMBO,openSpace,N-260,Carretera convencional
FCBQSXH6EIWIBQXGJO12,"Repsol ES, Proinpi S.L",40.465115,-5.325487,REPSOL SOLUCIONES ENERGÉTICAS SA,1,50.0,chademo|iec62196T2|iec62196T2COMBO,openSpace,N-110,Carretera convencional
2024004924,Abanto Las Carreras,43.318974,-3.0981588,Atlante Iberia SL,1,22.0,iec62196T2,onstreet,N-634,
2024000558,SO-BurgodeOsma-001,41.587887,-3.067258,IBERDROLA CLIENTES S.A.U,4,50.0,chademo|iec62196T2|iec62196T2COMBO,onstreet,N-122,Carretera convencional
US66KZ6Y19ZAXCFWIRKG,"Repsol ES, Armengol Morales S.L",42.43267,1.936314,REPSOL SOLUCIONES ENERGÉTICAS SA,1,50.0,chademo|iec62196T2|iec62196T2COMBO,openSpace,N-152,Carretera convencional
G6KL2POLXUTRAYAT6J7H,"Repsol ES, CRED Salas",42.02304,-3.29473,REPSOL SOLUCIONES ENERGÉTICAS SA,1,50.0,chademo|iec62196T2|iec62196T2COMBO,openSpace,N-234A,Carretera convencional
SM0RJ3W3NY4VHLD4YIER,NIMA GRUP - JAGUAR – LAND ROVER - INGETEAM EdRSR 8,41.116467,1.230811,"Etecnic Movilidad Electrica, SRL",2,22.0,iec62196T2,other,N-340,Carretera convencional
2024005061,21XP22T3KK4AL00145,38.1127,-3.09657,"ENDESA X WAY, S.L.",2,20.4,iec62196T2,openSpace,N-322,Carretera convencional
RWTRLSEEIFWBY0BR1UII,"Repsol ES, E.S. Fill-Up S.L.",38.878727,-6.962094,REPSOL SOLUCIONES ENERGÉTICAS SA,1,50.0,chademo|iec62196T2|iec62196T2COMBO,openSpace,N-430,Multicarril
CVZIEAUYD6PWIXGCJWSM,TotalEnergies - Hotel Mabu,42.355366,-7.883431,"TotalEnergies Charging Services España, SLU",3,100.0,iec62196T2|iec62196T2COMBO,onstreet,N-120,Multicarril
HGCC1YLDGG4DSU2SHBJS,"Repsol ES, Fertol SRL",41.527275,-5.699888,REPSOL SOLUCIONES ENERGÉTICAS SA,1,50.0,chademo|iec62196T2|iec62196T2COMBO,openSpace,N-122,Carretera convencional
ATFM3U8LBJ9WYRNUUT6D,Estación bp El Castillo,36.52034,-4.630344,CHARGING TOGETHER SL,2,100.0,chademo|iec62196T2COMBO,onstreet,A-7S,Autopista libre\Autovía
LKFZZBQPDSKG8KRNM27Z,"Repsol ES, Mosyper Gestion S.L.",43.328358,-8.389698,REPSOL SOLUCIONES ENERGÉTICAS SA,1,50.0,chademo|iec62196T2|iec62196T2COMBO,openSpace,N-550,Carretera convencional
2025000580,Hotel Restaurante Baviera,43.375175,-4.487485,CHARGING TOGETHER SL,4,100.0,iec62196T2|iec62196T2COMBO,openSpace,N-634,Carretera convencional
2024000247,TE-Teruel-008,40.360207,-1.140202,IBERDROLA CLIENTES S.A.U,2,320.0,iec62196T2COMBO,openSpace,N-234,Carretera convencional
8WGA78VY2L7GRG9EVAYF,"Repsol ES, Gasolinera Carral S.L",43.22592,-8.356156,REPSOL SOLUCIONES ENERGÉTICAS SA,1,50.0,chademo|iec62196T2|iec62196T2COMBO,openSpace,N-550,Carretera convencional
2024000202,L-TORREFARRERA-001,41.671745,0.604217,IBERDROLA CLIENTES S.A.U,4,180.0,iec62196T2|iec62196T2COMBO,onstreet,N-230,Carretera convencional
OZTHR8RS06F4FZJBXKXH,"Mercadona, Av. Das Mariñas, A Coruña",43.326546,-8.364246,REPSOL SOLUCIONES ENERGÉTICAS SA,6,22.17,iec62196T2,openSpace,AC-12,Multicarril
2023003024,20XM32T8KK3AR00051,37.18563,-3.960243,"ENDESA X WAY, S.L.",3,50.0,chademo|iec62196T2|iec62196T2COMBO,openSpace,A-92,Autopista libre\Autovía
2024006673,E-A-Elche/Elx-019,38.261524,-0.713642,IBERDROLA CLIENTES S.A.U,4,22.0,iec62196T2,,N-340,Carretera convencional
2024006790,BU-OÑA-003,42.73489,-3.414924,IBERDROLA CLIENTES S.A.U,2,100.0,iec62196T2COMBO,onstreet,N-232,Carretera convencional
2025000581,Mesón Ibérico Casa Marco - Fresno Alhándiga,40.69916,-5.623416,CHARGING TOGETHER SL,8,360.0,chademo|iec62196T2COMBO,openSpace,N-630,Carretera convencional
MU7F08US1CG6RRJ5GS1F,Restaurante El Corral de Don Pepe,42.647205,-5.593789,"Wenea Services Spain, S.L.",4,60.0,iec62196T2|iec62196T2COMBO,onstreet,N-630,Carretera convencional
6HDTCL4TZ3U9PYHBTJQS,TotalEnergies - Hotel Ciudad de Borja,41.83176,-1.52334,"TotalEnergies Charging Services España, SLU",4,100.0,chademo|iec62196T2|iec62196T2COMBO,onstreet,N-122,Carretera convencional
V8VETXQOQ0K2MAJZ8S5I,Estación bp Tafalla,42.49914,-1.672627,CHARGING TOGETHER SL,2,150.0,chademo|iec62196T2COMBO,onstreet,N-121,
2024006469,ACCIONA - Restaurante Los Castaños,41.743263,-6.4900355,ACCIONA Recarga,2,100.0,iec62196T2COMBO,openSpace,N-122,Carretera convencional
JKMMLPVHLLM50PCUNEP1,"Repsol ES, CRED El Encuentro",38.984783,-3.93451,REPSOL SOLUCIONES ENERGÉTICAS SA,1,50.0,chademo|iec62196T2|iec62196T2COMBO,openSpace,N-430C,Multicarril
2024004243,Hotel Ciudad de Borja,41.83176,-1.523313,WENEA EMOBILITY SERVICES S.L.,4,100.0,chademo|iec62196T2|iec62196T2COMBO,onstreet,N-122,Carretera convencional
5AFPSDPTJ8QVEHTZLN8B,"Repsol ES, CRED Avda. Alemania",39.462074,-6.383596,REPSOL SOLUCIONES ENERGÉTICAS SA,1,20.0,chademo|iec62196T2|iec62196T2COMBO,openSpace,N-521,Multicarril
2023004103,Salamanca - Tejares Nave Aparcamientos,40.955505,-5.7040777,(ZUNDER) Grupo Easychargar SA,2,180.0,iec62196T2COMBO,onstreet,N-630,Carretera convencional
BSXCAS7QCRAJWMICCY5L,"Repsol ES, CRED PUERTOLLANO",38.704845,-4.100161,REPSOL SOLUCIONES ENERGÉTICAS SA,1,50.0,chademo|iec62196T2|iec62196T2COMBO,openSpace,N-420,Carretera convencional
2025000669,La Cerdanya by Volkswagen,42.424328,1.923309,CHARGING TOGETHER SL,6,300.0,iec62196T2COMBO,,N-260,Carretera convencional
DVMFOHP3PTXSKSLJGR1Y,"Repsol ES, CRED Puente San Fernando",40.449158,-3.522459,REPSOL SOLUCIONES ENERGÉTICAS SA,1,50.0,chademo|iec62196T2|iec62196T2COMBO,openSpace,A-2,Autopista libre\Autovía
FFNUCTGYXZ9BAD4DOFQ8,HU-Villanua-01,42.678192,-0.537995,IBERDROLA CLIENTES S.A.U,4,50.0,chademo|iec62196T2|iec62196T2COMBO,,N-330,Carretera convencional
7ETYDJKLBNPFGMWXYN9M,"Repsol ES, CRED Ciudad Real",38.977356,-3.9362,REPSOL SOLUCIONES ENERGÉTICAS SA,1,50.0,chademo|iec62196T2|iec62196T2COMBO,openSpace,N-420A,Carretera convencional
3RARWLKUUEX3KEQTAMON,"Repsol ES, RICAGAS GUMIEL SL",41.780006,-3.695843,REPSOL SOLUCIONES ENERGÉTICAS SA,1,50.0,chademo|iec62196T2|iec62196T2COMBO,openSpace,N-1,Carretera convencional
2024000040,OU-Sobreira-001,42.40799,-7.072508,IBERDROLA CLIENTES S.A.U,4,50.0,chademo|iec62196T2|iec62196T2COMBO,onstreet,N-120,Carretera convencional
2023003744,20XM32T8KK3AR00068,42.56621,-2.83949,"ENDESA X WAY, S.L.",3,50.0,chademo|iec62196T2|iec62196T2COMBO,openSpace,N-124,Carretera convencional
2024000332,NA-Campanas-001,42.688374,-1.651849,IBERDROLA CLIENTES S.A.U,2,50.0,chademo|iec62196T2|iec62196T2COMBO,openSpace,N-121,
2024000426,MA-Malaga-051,36.68925,-4.443587,IBERDROLA CLIENTES S.A.U,4,22.0,iec62196T2,onstreet,MA-22,Multicarril
WUJ1CSSYWIYY2NWWN2HF,"Repsol ES, Os Pepes",42.072742,-7.731959,REPSOL SOLUCIONES ENERGÉTICAS SA,1,50.0,chademo|iec62196T2|iec62196T2COMBO,openSpace,N-525,Carretera convencional
QSYTHQ94KIZ9LZRXPBC3,GI-PontDeMolins-003,42.31942,2.930903,IBERDROLA CLIENTES S.A.U,2,50.0,iec62196T2COMBO,onstreet,N-2,Carretera convencional
2024006763,Ayuntamiento de Casabermeja,36.896355,-4.4304857,"FENIE ENERGIA, SA",1,7.4,iec62196T2,openSpace,A-45,Autopista libre\Autovía
4FMEBLBBCULNZ7NSARUI,TotalEnergies - KIA Hipergar,42.565357,-6.666844,"TotalEnergies Charging Services España, SLU",3,50.0,chademo|iec62196T2|iec62196T2COMBO,onstreet,N-6,Carretera convencional
HS6JB0C65O6QUOSYSPH2,"Repsol ES, CRED Ojaiz",43.4428,-3.877837,REPSOL SOLUCIONES ENERGÉTICAS SA,1,50.0,chademo|iec62196T2|iec62196T2COMBO,openSpace,N-611,Carretera convencional
MGVDFDDAAW5N9SUVEDAZ,VA-Villanubla-007,41.69727,-4.83028,IBERDROLA CLIENTES S.A.U,2,60.0,iec62196T2COMBO,openSpace,N-601,Carretera convencional
F9WRCX3U9LKR2N7RW9OJ,"Repsol ES, Roa Los Llanos",42.6887,-2.953059,REPSOL SOLUCIONES ENERGÉTICAS SA,1,50.0,chademo|iec62196T2|iec62196T2COMBO,openSpace,N-1,Carretera convencional
TNJVI5HTXIJS15TVIFLH,"BM, Martorell",41.493378,1.911576,REPSOL SOLUCIONES ENERGÉTICAS SA,2,7.36,iec62196T2,openSpace,N-2,Autopista libre\Autovía
2025000089,Hotel Mabú,42.35534,-7.88348,"Wenea Services Spain, S.L.",3,100.0,iec62196T2|iec62196T2COMBO,onstreet,N-120,Multicarril
BDD5XPGQ9VWCGUNR6BQR,"Repsol ES, E.S. MURRIA HERMANOS",41.0526,-0.152782,REPSOL SOLUCIONES ENERGÉTICAS SA,1,50.0,chademo|iec62196T2|iec62196T2COMBO,openSpace,N-232A,Carretera convencional
2024004055,Rest. Santa Ana,39.52184,-3.523388,WENEA EMOBILITY SERVICES S.L.,5,210.0,chademo|iec62196T2|iec62196T2COMBO,onstreet,A-4,Autopista libre\Autovía
NBT4WFY7OLDUXT2TJQGX,"Repsol ES, Calamocha",40.91255,-1.298796,REPSOL SOLUCIONES ENERGÉTICAS SA,1,50.0,chademo|iec62196T2|iec62196T2COMBO,openSpace,N-234,Carretera convencional
2024005962,C6E06BCC22MHWDVCBW,42.35262,3.109008,"ENDESA X WAY, S.L.",2,60.0,iec62196T2COMBO,openSpace,N-260,Carretera convencional
2023003220,61947051020026,41.077896,0.47838,"ENDESA X WAY, S.L.",2,22.0,iec62196T2,openSpace,N-420,Carretera convencional
ERKZG51TUPVRK4XRSUAR,"Repsol ES, O PICATO",42.93182,-7.634305,REPSOL SOLUCIONES ENERGÉTICAS SA,1,50.0,chademo|iec62196T2|iec62196T2COMBO,openSpace,N-540,Carretera convencional
VGDUP7HP9DLBAMRI2LVM,"Repsol ES, CRED Tunel Del Cadi",42.346123,1.833639,REPSOL SOLUCIONES ENERGÉTICAS SA,2,180.0,iec62196T2COMBO,openSpace,C-16,Autopista peaje
2024004166,Hostal El Botero,40.78518,-1.347556,WENEA EMOBILITY SERVICES S.L.,4,100.0,chademo|iec62196T2|iec62196T2COMBO,onstreet,N-234,Carretera convencional
NHTNELQW24FIUCHZHMVB,"Repsol ES, CRED Vera De Bidasoa Md",43.278088,-1.708453,REPSOL SOLUCIONES ENERGÉTICAS SA,1,50.0,chademo|iec62196T2|iec62196T2COMBO,openSpace,N-121-A,Carretera convencional
3A5UH8HCHLDBY25HDYSK,"Repsol ES, Ctra. Bejar",40.9475,-5.670195,REPSOL SOLUCIONES ENERGÉTICAS SA,1,50.0,chademo|iec62196T2|iec62196T2COMBO,openSpace,N-630,Carretera convencional
2024004278,Hotel Miramar,40.21714,0.188568,"Wenea Services Spain, S.L.",4,100.0,chademo|iec62196T2|iec62196T2COMBO,onstreet,N-340,Carretera convencional
2024006481,PRÓXIMAMENTE ACCIONA - Hotel Piqué,41.05815,0.4417201,ACCIONA Recarga,2,100.0,iec62196T2COMBO,openSpace,N-420,Carretera convencional
EAOKECQEJ61CRRGRMKLI,Hyundai Almerialva,36.891556,-2.4456482,"Emovili Fast, S.L.",2,60.0,iec62196T2COMBO,onstreet,N-340A,Carretera convencional
6QWRD9HUELFAPVIG3ZPN,"Repsol ES, GRUPO MAICAS LA PAZ",40.357143,-1.136348,REPSOL SOLUCIONES ENERGÉTICAS SA,1,50.0,chademo|iec62196T2|iec62196T2COMBO,openSpace,N-234,Carretera convencional
LLAH7YKP2ODMKBGRZPGU,"Repsol ES, CRED Benavente",41.99221,-5.647187,REPSOL SOLUCIONES ENERGÉTICAS SA,2,160.0,iec62196T2COMBO,openSpace,N-6,Multicarril
2024000873,SA-Salamanca-007,40.945755,-5.554553,IBERDROLA CLIENTES S.A.U,2,50.0,chademo|iec62196T2|iec62196T2COMBO,onstreet,N-501,Carretera convencional
2024004378,ACCIONA - Restaurante Ventorrillo El Chato,36.48004,-6.26231,ACCIONA Recarga,1,24.0,chademo|iec62196T2COMBO,openSpace,CA-33,Multicarril
2024006627,E-CA-SanRoque-001,36.291496,-5.300579,IBERDROLA CLIENTES S.A.U,4,22.0,iec62196T2,,N-340,Carretera convencional
2024007205,Moll de la Fusta,41.37647,2.178355,"BARCELONA DE SERVEIS MUNICIPALS, SA",12,3.6,domesticF|iec62196T2,inBuilding,B-10,Autopista libre\Autovía
2024000657,TE-Calanda-002,40.945244,-0.23089,IBERDROLA CLIENTES S.A.U,2,7.0,iec62196T2,onstreet,N-211,Carretera convencional
BAXCISO1CRXDMU9LSTUB,Estación Valcarce Baamonde,43.172718,-7.766572,CHARGING TOGETHER SL,8,150.0,chademo|iec62196T2|iec62196T2COMBO,onstreet,N-6,Carretera convencional
2024006452,ACCIONA - Meson del Aceite,41.81918,-1.6089104,ACCIONA Recarga,2,100.0,iec62196T2COMBO,openSpace,N-122,Carretera convencional
2024006473,ACCIONA - Restaurante Antela,42.073082,-7.7315392,ACCIONA Recarga,2,100.0,iec62196T2COMBO,onstreet,N-525,Carretera convencional
2024004286,Rest. El Carcau,39.7685,-0.208786,WENEA EMOBILITY SERVICES S.L.,4,100.0,chademo|iec62196T2|iec62196T2COMBO,onstreet,N-340,Carretera convencional
WP4NJPNCJJCXI3GR89JH,"Repsol ES, CRED Olaz",42.816082,-1.593917,REPSOL SOLUCIONES ENERGÉTICAS SA,1,50.0,chademo|iec62196T2|iec62196T2COMBO,openSpace,PA-30,Multicarril
2024000907,E-BI-Iurreta-002,43.184917,-2.668586,IBERDROLA CLIENTES S.A.U,6,7.4,iec62196T2,,N-634,
2024004772,C-Ferrol-002,43.48686,-8.20098,IBERDROLA CLIENTES S.A.U,1,50.0,chademo|iec62196T2COMBO,openSpace,FE-13,Multicarril
2024004178,Hotel Aragón,42.55511,-0.67917,WENEA EMOBILITY SERVICES S.L.,4,100.0,chademo|iec62196T2|iec62196T2COMBO,onstreet,N-240,Carretera convencional
2024000461,Barrio BERNA,43.1871,-2.678831,IBERDROLA CLIENTES S.A.U,1,50.0,chademo|iec62196T2COMBO,onstreet,N-634,
2024001039,PO-Vigo-004,42.220196,-8.706229,IBERDROLA CLIENTES S.A.U,2,50.0,chademo|iec62196T2|iec62196T2COMBO,openSpace,A-55,Multicarril
2024005100,20XM32T8KK4AR00008,42.564583,-0.567253,"ENDESA X WAY, S.L.",3,50.0,chademo|iec62196T2|iec62196T2COMBO,openSpace,N-240,Carretera convencional
2024006622,E-BA-Badajoz-005,38.874886,-6.954292,IBERDROLA CLIENTES S.A.U,2,150.0,iec62196T2COMBO,,BA-20,Multicarril
2024000547,SA-Salamanca-004,40.93196,-5.466889,IBERDROLA CLIENTES S.A.U,2,50.0,chademo|iec62196T2|iec62196T2COMBO,onstreet,N-501,Carretera convencional
2024002174,E-SG-ElEspinar-001,40.714314,-4.189421,IBERDROLA CLIENTES S.A.U,2,7.36,iec62196T2,onstreet,N-603,Carretera convencional
2024001978,CAÑAVERAL,39.792633,-6.389783,"OESTE SOLUCIONES ENERGETICAS, S.L.",1,22.0,iec62196T2,onstreet,N-630,Carretera convencional
2024001006,SO-SanEstebandeGormaz-002,41.57298,-3.20117,IBERDROLA CLIENTES S.A.U,2,7.0,iec62196T2,onstreet,N-110,Carretera convencional
2023002856,21XM32T7KK3AR00053,42.040314,-3.752322,"ENDESA X WAY, S.L.",3,50.0,chademo|iec62196T2|iec62196T2COMBO,openSpace,A-1,Autopista libre\Autovía
41WOUC4BHZHOQRUA1MXB,TotalEnergies - Rest. La Dehesa,38.930065,-1.83219,"TotalEnergies Charging Services España, SLU",4,100.0,chademo|iec62196T2|iec62196T2COMBO,onstreet,N-301,Carretera convencional
JYM37HMONQCF5DZGVUUY,TotalEnergies - Hotel Miramar,40.21707,0.188536,"TotalEnergies Charging Services España, SLU",4,100.0,chademo|iec62196T2|iec62196T2COMBO,onstreet,N-340,Carretera convencional
2023002446,Restaurante Casa Marino,37.218796,-3.696785,Punto Recargas SL,2,100.0,chademo|iec62196T2COMBO,onstreet,N-432,Carretera convencional
2024004073,Rest. Canoas La Ribera,43.431496,-5.062404,WENEA EMOBILITY SERVICES S.L.,6,50.0,chademo|iec62196T2|iec62196T2COMBO,onstreet,N-634,Carretera convencional
C2JBB8PHHIZSBOSJMKGB,ESTACION SERVICIO MIRALBUENO S.L,41.663418,-0.930423,ESTACION SERVICIO MIRALBUENO S.L,1,180.0,iec62196T2COMBO,onstreet,N-232,Multicarril
KERDD3U9DSVAVVFYOIMV,Burger King - Galdakao,43.22797,-2.837736,CHARGING TOGETHER SL,2,100.0,iec62196T2COMBO,openSpace,N-634,
2024000798,"Allego ROFERVIGO, S.L.",42.21418,-8.673484,Allego Spain S.L.U,1,50.0,chademo|iec62196T2COMBO,other,A-55,Autopista libre\Autovía
JQYNWNXEKRDNVNQOJJYT,"Repsol ES, Rogonoil S.L",41.18201,-4.807545,REPSOL SOLUCIONES ENERGÉTICAS SA,1,50.0,chademo|iec62196T2|iec62196T2COMBO,openSpace,A-6,Autopista libre\Autovía
KF70MYUITROYPB5LTFXB,"Repsol ES, CAP DESARROLLO DE INVERSIONES",42.364117,-3.621746,REPSOL SOLUCIONES ENERGÉTICAS SA,1,40.0,chademo|iec62196T2|iec62196T2COMBO,openSpace,N-1,Multicarril
2024004310,Rest. San Martiño,42.815662,-8.616869,WENEA EMOBILITY SERVICES S.L.,3,40.0,chademo|iec62196T2|iec62196T2COMBO,onstreet,N-550,Carretera convencional
2RHZ85AI0CWCFSW3APOI,"Repsol ES, Gureak Zerbitzuguneak",43.152893,-2.068776,REPSOL SOLUCIONES ENERGÉTICAS SA,1,50.0,chademo|iec62196T2|iec62196T2COMBO,openSpace,A-1,Autopista libre\Autovía
DNGKHFB1TDRATNTG5CDK,TotalEnergies - Hotel Aragon,42.555096,-0.679159,"TotalEnergies Charging Services España, SLU",4,100.0,chademo|iec62196T2|iec62196T2COMBO,onstreet,N-240,Carretera convencional
C7OVIRP6J6MDGGWVRB6L,"Repsol ES, Adria Sole Giralt",41.733295,0.59136,REPSOL SOLUCIONES ENERGÉTICAS SA,1,50.0,chademo|iec62196T2|iec62196T2COMBO,openSpace,N-230,Carretera convencional
2023002168,Avia - Cudillero,43.555244,-6.167259,EDP CLIENTES SAU,1,50.0,chademo|iec62196T2|iec62196T2COMBO,onstreet,N-632,Carretera convencional
HNEIU4CDTVKKTRGC9CZQ,"Repsol ES, LORETO S.L.",37.18492,-3.958857,REPSOL SOLUCIONES ENERGÉTICAS SA,1,50.0,chademo|iec62196T2|iec62196T2COMBO,openSpace,A-92,Autopista libre\Autovía
2023003593,61923022640003,38.010437,-4.376796,"ENDESA X WAY, S.L.",3,50.0,chademo|iec62196T2|iec62196T2COMBO,openSpace,A-4,Autopista libre\Autovía
DSWHBLIPPPRLWFMYJPJZ,"Repsol ES, CRED Las Gaunas",42.453342,-2.448068,REPSOL SOLUCIONES ENERGÉTICAS SA,2,180.0,iec62196T2COMBO,openSpace,LO-20,Autopista libre\Autovía
2024003972,DIPBA Fuente de Cantos,38.247707,-6.300789,WENEA EMOBILITY SERVICES S.L.,2,22.0,iec62196T2,onstreet,N-630,Carretera convencional
2024006630,E-S-Santander-005,43.45069,-3.86036,IBERDROLA CLIENTES S.A.U,2,150.0,iec62196T2COMBO,,N-611,Carretera convencional
DMFWWZBIEWWIVRVVV2WP,"Repsol ES, PEIRO BONAFONTE",40.148884,-0.823395,REPSOL SOLUCIONES ENERGÉTICAS SA,1,50.0,chademo|iec62196T2|iec62196T2COMBO,openSpace,N-234,Carretera convencional
DDGW2TPTBS7ENETVNPI4,"Repsol ES,  LA TORRE",40.22226,0.201337,REPSOL SOLUCIONES ENERGÉTICAS SA,1,50.0,chademo|iec62196T2|iec62196T2COMBO,openSpace,N-340,Carretera convencional
RF1SIBXLJFBLG2DD8OQW,"Repsol ES, CRED tuneles Vallvidrera",41.433514,2.078099,REPSOL SOLUCIONES ENERGÉTICAS SA,2,180.0,iec62196T2COMBO,openSpace,C-16,Autopista peaje
2024000717,"TheF Charging Espana Club Arsenal Masculino - Carrer de Pomaret, 49, Barcelona",41.405827,2.120623,The F Charging Espana S.L.U.,6,7.0,iec62196T2,onstreet,B-20,Autopista libre\Autovía
X0KRI60EEMONRBB9GBDN,C-ACoruña-006,43.32905,-8.390306,IBERDROLA CLIENTES S.A.U,22,22.0,iec62196T2,,N-550,Carretera convencional
RFFXTCZ5MSVL4RKWTCXX,Parking indigo Munoa,43.28686,-2.176813,"TotalEnergies Charging Services España, SLU",2,7.0,iec62196T2,onstreet,N-634,
8XY8FTLWP2IJHK0XVG43,"Mercadona, Tordesillas, Zamora",41.521973,-5.718848,REPSOL SOLUCIONES ENERGÉTICAS SA,4,22.17,iec62196T2,openSpace,ZA-12,Multicarril
8MLX1ZA8DOO1RZTQBRNL,E-B-Cervello-001,41.388992,1.942527,IBERDROLA CLIENTES S.A.U,4,22.0,iec62196T2,openSpace,N-340,Carretera convencional
9VCYHSPVGAHZRLGHCJGE,"Repsol ES, Canivell Av. Lugo",43.56653,-5.926751,REPSOL SOLUCIONES ENERGÉTICAS SA,1,50.0,chademo|iec62196T2|iec62196T2COMBO,openSpace,N-632A,Carretera convencional
2024004698,E-BU-Burgos-006,42.304417,-3.702258,IBERDROLA CLIENTES S.A.U,2,150.0,iec62196T2COMBO,,A-1,Autopista libre\Autovía
XWQK7ITTFH3X86T8HPPB,Cáceres Centro,39.472527,-6.378973,"APK ELECTRIC, S.L.",6,22.0,iec62196T2,,N-521,Multicarril
2024000767,E-GR-Salobreña-001,36.746334,-3.584,IBERDROLA CLIENTES S.A.U,4,22.0,iec62196T2,,N-340,Carretera convencional
2024006683,LU-AsNogais-001,42.81017,-7.11031,IBERDROLA CLIENTES S.A.U,4,50.0,chademo|iec62196T2|iec62196T2COMBO,onstreet,N-6,Carretera convencional
2024007172,Salvador Espriu 97,41.393234,2.202865,"BARCELONA DE SERVEIS MUNICIPALS, SA",1,50.0,chademo|iec62196T2|iec62196T2COMBO,onstreet,B-10,Autopista libre\Autovía
2024000817,"Allego NISSAN KENTO MOTOR, S.L.",39.909615,-4.010892,Allego Spain S.L.U,2,50.0,chademo|iec62196T2COMBO,other,A-42,Autopista libre\Autovía
2023003942,61923022630002,38.410305,-3.498747,"ENDESA X WAY, S.L.",3,50.0,chademo|iec62196T2|iec62196T2COMBO,openSpace,A-4,Autopista libre\Autovía
ULNBXJLEA0FNFHJHZZBF,E.S. PORTAZGO CARGADOR P,41.660816,-0.9258108,"ZOILO RIOS, S.A.",1,120.0,iec62196T2COMBO,openSpace,N-232,Multicarril
2023000088,E.S. PORTAZGO,41.660816,-0.9258108,"ZOILO RIOS, S.A.",1,50.0,chademo|iec62196T1COMBO|iec62196T2,other,N-232,Multicarril
2024004020,Rest. Venta de Santa Lucía,41.496403,-0.367479,WENEA EMOBILITY SERVICES S.L.,6,43.0,chademo|iec62196T2|iec62196T2COMBO,onstreet,N-2,Carretera convencional
2024003480,"FERVI, S.L.",42.66502,-8.121824,"FERVI, SL.",1,43.0,iec62196T2,openSpace,N-525,Carretera convencional
2024004093,Rest. Los Cordobeses,37.13427,-4.284149,"Wenea Services Spain, S.L.",4,75.0,chademo|iec62196T2|iec62196T2COMBO,onstreet,A-92,Autopista libre\Autovía
QQXWQCN2XKERUOJV6OIJ,Estación bp El Águila,43.54166,-6.02618,CHARGING TOGETHER SL,2,150.0,chademo|iec62196T2COMBO,onstreet,N-632,Carretera convencional
2024004267,Rest. La Palomica,41.695015,-0.988313,WENEA EMOBILITY SERVICES S.L.,4,70.0,chademo|iec62196T2|iec62196T2COMBO,onstreet,N-232,Multicarril
2024000787,"Allego AG PARAYAS, S.L.",43.44889,-3.831363,Allego Spain S.L.U,1,50.0,chademo|iec62196T2COMBO,other,S-10,Autopista libre\Autovía
2023003573,20XM32T8KK3AR00045,41.62368,-0.846066,"ENDESA X WAY, S.L.",3,50.0,chademo|iec62196T2|iec62196T2COMBO,openSpace,A-68,Autopista libre\Autovía
2024003403,MLC - Estación de Servicio Burutain,42.931423,-1.60894,Punto Recargas SL,2,50.0,iec62196T2COMBO,onstreet,N-121-A,Carretera convencional
2023004074,Miranda de Ebro - Hotel Tudanca,42.688583,-2.953472,(ZUNDER) Grupo Easychargar SA,5,50.0,chademo|iec62196T2|iec62196T2COMBO,onstreet,N-1,Carretera convencional
2024003919,Rest. Casa Pepe,38.417778,-3.498855,WENEA EMOBILITY SERVICES S.L.,6,100.0,chademo|iec62196T2|iec62196T2COMBO,onstreet,N-4A,Carretera convencional
MUVZOCVLHAT0HJUJCT82,CRECE-Kia Algeciras,36.14921,-5.455118,ION SMART ENERGY 2000 SL,1,50.0,iec62196T2|iec62196T2COMBO,openSpace,A-7S,Multicarril
2024004465,ACCIONA - CEPSA Tábara,41.820766,-5.9502416,ACCIONA Recarga,2,50.0,chademo|iec62196T2|iec62196T2COMBO,openSpace,N-631,Carretera convencional
2023004168,Mimoondo,43.43353,-3.912999,Punto Recargas SL,5,100.0,chademo|iec62196T2|iec62196T2COMBO,onstreet,N-611,Carretera convencional
2024006462,PRÓXIMAMENTE ACCIONA - Restaurant El Parador,42.129673,2.9031188,ACCIONA Recarga,1,22.0,iec62196T2,onstreet,N-2,Carretera convencional
2024004255,Camping Castillo,36.741142,-3.301643,WENEA EMOBILITY SERVICES S.L.,4,100.0,chademo|iec62196T2|iec62196T2COMBO,onstreet,N-340,Carretera convencional
2024000499,CS-VINAROS-005,40.455673,0.45464,IBERDROLA CLIENTES S.A.U,4,22.0,iec62196T2,openSpace,N-340A,Carretera convencional
K0HZOJ3WVSRH8A5NGEHY,TotalEnergies - Rest. La Palomica,41.69503,-0.98832,"TotalEnergies Charging Services España, SLU",4,100.0,chademo|iec62196T2|iec62196T2COMBO,onstreet,N-232,Multicarril
2024000815,"Allego NISSAN RIMAUTO TERUEL CAR, S.L.U.",40.356853,-1.13498,Allego Spain S.L.U,2,50.0,chademo|iec62196T2COMBO,other,N-234,Carretera convencional
OJEYMOJNYSDJYK19BUBC,"Repsol, Bodegas Roda",42.585976,-2.845534,REPSOL SOLUCIONES ENERGÉTICAS SA,2,11.0,iec62196T2,openSpace,N-124,Carretera convencional
V7O4CDS1JYTVCA7XJ1PC,"Repsol ES, Venta del Barrio",41.21446,-0.468551,REPSOL SOLUCIONES ENERGÉTICAS SA,1,50.0,chademo|iec62196T2|iec62196T2COMBO,openSpace,N-232,Carretera convencional
2024006468,ACCIONA - Ayto San Martín de Valdeiglesias - Crta Toledo,40.36021,-4.402988,ACCIONA Recarga,2,100.0,iec62196T2COMBO,openSpace,N-403A,Carretera convencional
2023002880,20XM32T7KK4AR00198,42.040283,-3.752292,"ENDESA X WAY, S.L.",3,50.0,chademo|iec62196T2|iec62196T2COMBO,openSpace,A-1,Autopista libre\Autovía
2024000215,NA-Aizoain-001,42.84359,-1.68169,IBERDROLA CLIENTES S.A.U,2,50.0,chademo|iec62196T2|iec62196T2COMBO,onstreet,PA-34,Multicarril
2024004424,ACCIONA - Hotel La Seu,42.3553,1.44097,ACCIONA Recarga,2,90.0,iec62196T2COMBO,openSpace,N-260,Carretera convencional
2024007000,Galp - Parbayón,43.35925,-3.924742,Punto Recargas SL,2,120.0,iec62196T2COMBO,onstreet,N-623,Carretera convencional
2024007140,"Av. Esplugues, 52",41.388134,2.107238,"BARCELONA DE SERVEIS MUNICIPALS, SA",1,3.6,domesticF,onstreet,B-20,Autopista libre\Autovía
VJSOEWQAXQAY6I4UNQJM,"Repsol ES, Almenara Casas Inversiones S.L",39.76781,-3.174745,REPSOL SOLUCIONES ENERGÉTICAS SA,1,50.0,chademo|iec62196T2|iec62196T2COMBO,openSpace,N-301,Carretera convencional
2024007132,"Via Favència, 169",41.44475,2.174366,"BARCELONA DE SERVEIS MUNICIPALS, SA",1,3.6,domesticF,onstreet,B-20,Autopista libre\Autovía
2024004242,Rest. La Dehesa,38.93009,-1.832255,WENEA EMOBILITY SERVICES S.L.,4,100.0,chademo|iec62196T2|iec62196T2COMBO,onstreet,N-301,Carretera convencional
P47CVVPOVHLAJ2GYAWMX,Hotel El Cisne,41.62408,-1.011695,"Wenea Services Spain, S.L.",4,150.0,chademo|iec62196T2|iec62196T2COMBO,onstreet,A-2,Autopista libre\Autovía
9ZGB2JAG1FYUQEC5KZEG,"Repsol ES, Caño Dorado S.L",41.452637,-4.666846,REPSOL SOLUCIONES ENERGÉTICAS SA,1,50.0,chademo|iec62196T2|iec62196T2COMBO,openSpace,N-601,Carretera convencional
WXGM38PBH6HS4YW7RRYV,"Repsol ES, Autoserv. Bilbao",43.251,-2.889104,REPSOL SOLUCIONES ENERGÉTICAS SA,1,50.0,chademo|iec62196T2|iec62196T2COMBO,openSpace,N-634,
RE8YAGG77UTIE57PAKII,"Repsol ES, Amaro Bravo",42.429638,-8.09032,REPSOL SOLUCIONES ENERGÉTICAS SA,1,50.0,chademo|iec62196T2|iec62196T2COMBO,openSpace,N-541,Carretera convencional
2023002086,Centro Porsche A Coruña estación de carga 1,43.32953,-8.36636,Darsen Motor S.L.,1,320.0,iec62196T2COMBO,other,AC-12,Multicarril
2023002087,Centro Porsche A Coruña estación de carga 2,43.32953,-8.36636,Darsen Motor S.L.,1,320.0,iec62196T2COMBO,other,AC-12,Multicarril
2024004032,Rest. Asador Los Rosales,40.250015,-4.054693,WENEA EMOBILITY SERVICES S.L.,5,100.0,iec62196T2|iec62196T2COMBO,onstreet,A-5,Autopista libre\Autovía
YUMU4XGYDRBEJZZSBQ9O,"Repsol ES, CRED Valtierra M.D.",42.200317,-1.675074,REPSOL SOLUCIONES ENERGÉTICAS SA,1,50.0,chademo|iec62196T2|iec62196T2COMBO,openSpace,AP-15,Autopista peaje
2024000453,E-T-MoraDEbre-001,41.080887,0.638284,IBERDROLA CLIENTES S.A.U,6,22.0,iec62196T2,,N-420,Carretera convencional
ZPYXQUZU0S53E2ZCU28M,TotalEnergies - Camping Castillo,36.741127,-3.301634,"TotalEnergies Charging Services España, SLU",4,100.0,chademo|iec62196T2|iec62196T2COMBO,onstreet,N-340,Carretera convencional
VIG88TYDPVY7Z2EE4CRR,TotalEnergies - Rest. Valle Grande,39.175896,-6.620632,"TotalEnergies Charging Services España, SLU",4,100.0,chademo|iec62196T2|iec62196T2COMBO,onstreet,N-523,Carretera convencional
2023004022,61925025260006,40.629128,-3.997271,"ENDESA X WAY, S.L.",3,50.0,chademo|iec62196T2|iec62196T2COMBO,openSpace,A-6,Autopista libre\Autovía
2024004432,ACCIONA - A Palloza,43.05047,-7.5118375,ACCIONA Recarga,4,120.0,chademo|iec62196T2COMBO,openSpace,N-640,Carretera convencional
2023003971,62047041180011,37.902946,-6.220952,"ENDESA X WAY, S.L.",3,50.0,chademo|iec62196T2|iec62196T2COMBO,openSpace,N-630,Carretera convencional
2023002869,21XM32T7KK3AR00047,42.585518,-5.583759,"ENDESA X WAY, S.L.",3,50.0,chademo|iec62196T2|iec62196T2COMBO,openSpace,N-120,Multicarril
E4QKZWKFD2FGOR1WTAL7,"Repsol ES, LA RAMBLA",37.6435,-4.73772,REPSOL SOLUCIONES ENERGÉTICAS SA,2,150.0,iec62196T2COMBO,openSpace,A-45,Autopista libre\Autovía
2023003979,20XM32T8KK3AR00009,38.849056,-6.93813,"ENDESA X WAY, S.L.",3,50.0,chademo|iec62196T2|iec62196T2COMBO,openSpace,N-432,Carretera convencional
2024005803,2210112433,38.849056,-6.93813,"ENDESA X WAY, S.L.",3,60.0,chademo|iec62196T2|iec62196T2COMBO,openSpace,N-432,Carretera convencional
DHRVEIHCCOVWOIMA8L4D,"Repsol ES, CARBURANTES LA PERDIZ",41.58709,-3.058162,REPSOL SOLUCIONES ENERGÉTICAS SA,1,50.0,chademo|iec62196T2|iec62196T2COMBO,openSpace,N-122,Carretera convencional
2024006387,"Burgos, Spain",42.31076,-3.70314,Tesla Spain SLU,6,150.0,iec62196T2|iec62196T2COMBO,openSpace,BU-11,Multicarril
UP5JVVMQ2ECMEPGWCFEO,TotalEnergies - Hostal Soto,42.585133,-5.629985,"TotalEnergies Charging Services España, SLU",4,100.0,chademo|iec62196T2|iec62196T2COMBO,onstreet,N-120,Multicarril
2023000086,Atenoil Valdepeñas,38.89988,-3.39051,Atlante Iberia SL,1,60.0,iec62196T2COMBO,openSpace,A-4,Autopista libre\Autovía
2024000918,E-BA-Monesterio-001,38.093548,-6.276211,IBERDROLA CLIENTES S.A.U,2,22.0,iec62196T2,,N-630,Carretera convencional
D7M7H1QSXR0UBO7AIX9O,Seur Ferrol,43.48639,-8.200271,REPSOL SOLUCIONES ENERGÉTICAS SA,2,11.0,iec62196T2,openSpace,FE-13,Multicarril
2023003292,61934038200012,41.38926,1.94438,"ENDESA X WAY, S.L.",3,50.0,chademo|iec62196T2|iec62196T2COMBO,openSpace,N-340,Carretera convencional
AAPMKUPYWIYYGKV4L6WZ,"Repsol ES, Cred Arc De Bara",41.178364,1.488765,REPSOL SOLUCIONES ENERGÉTICAS SA,1,50.0,chademo|iec62196T2|iec62196T2COMBO,openSpace,N-340,Carretera convencional
2025000307,Nuevo aparcamiento plaza el ferroviario,43.38537,-5.703455,EDISON NEXT SPAIN SLU,1,150.0,chademo|iec62196T2|iec62196T3A,openSpace,N-634,Carretera convencional
LCR99X0KPYZSIUUENFX6,Ap. BSM - P. R. Biomèdica,41.38553,2.19359,"BARCELONA DE SERVEIS MUNICIPALS, SA",14,3.6,domesticF|iec62196T2,inBuilding,B-10,Autopista libre\Autovía
2024007218,P. R. Biomèdica,41.38553,2.19359,"BARCELONA DE SERVEIS MUNICIPALS, SA",14,3.6,domesticF|iec62196T2,inBuilding,B-10,Autopista libre\Autovía
2024000796,Allego FRANCISCO MARCOS S.A,38.260113,-0.719889,Allego Spain S.L.U,1,50.0,chademo|iec62196T2COMBO,other,N-340,Carretera convencional
0JYUB8FT81O3YHHN0JRE,"Repsol ES, PORTAL ALAGON MI",41.761143,-1.149449,REPSOL SOLUCIONES ENERGÉTICAS SA,1,50.0,chademo|iec62196T2|iec62196T2COMBO,openSpace,A-68,Multicarril
2024000108,LE-LaPorteladeValcarce-002,42.65886,-6.914265,IBERDROLA CLIENTES S.A.U,4,50.0,chademo|iec62196T2|iec62196T2COMBO,onstreet,N-6,Carretera convencional
S7I5NZRMHQZW3XA0IIFO,"Mercadona, Paseo de Elx, Alicante",38.248543,-0.798186,REPSOL SOLUCIONES ENERGÉTICAS SA,4,22.17,iec62196T2,openSpace,N-340,Carretera convencional
UQKDPZZ7RD4DTZGC7UKP,"Mercadona, Lerun, Gipuzkoa",43.222256,-2.406634,REPSOL SOLUCIONES ENERGÉTICAS SA,6,22.17,iec62196T2,openSpace,N-634,
2024006453,ACCIONA - Ayuntamiento de Azaila,41.29086,-0.494857,ACCIONA Recarga,2,100.0,iec62196T2COMBO,onstreet,N-232,Carretera convencional
2023003046,20XM32T8KK3AR00031,43.166306,-2.595696,"ENDESA X WAY, S.L.",3,50.0,chademo|iec62196T2|iec62196T2COMBO,openSpace,N-634,
MT0QMNUTAOJXBKOKV0EH,Popeyes Puertollano - 01,38.700287,-4.103495,CHARGING TOGETHER SL,2,110.0,iec62196T2COMBO,,N-420,Carretera convencional
2024007203,Bus Garcia Fària,41.40683,2.21849,"BARCELONA DE SERVEIS MUNICIPALS, SA",1,3.6,domesticF|iec62196T2,inBuilding,B-10,Autopista libre\Autovía
FZBIZXX0BULPT6SM7ZSM,Ap. BSM - Bus Garcia Fària,41.40683,2.21849,"BARCELONA DE SERVEIS MUNICIPALS, SA",5,7.2,domesticF|iec62196T2,inBuilding,B-10,Autopista libre\Autovía
EXZWJOJKCO6KZOYGQ6GK,"Repsol ES, GASOLMILLOS",42.399574,-4.038098,REPSOL SOLUCIONES ENERGÉTICAS SA,1,50.0,chademo|iec62196T2|iec62196T2COMBO,openSpace,N-120,Carretera convencional
2024004610,ÁREA AUTOCARAVANAS ABRES,43.44251,-7.0982437,ENERGEA CONSULTING Y ASESORES SL,1,22.0,iec62196T2,openSpace,N-640,Carretera convencional
VWMFMIV5SESPYXECCXRN,TotalEnergies - Rest. Los Cordobeses,37.134243,-4.284112,"TotalEnergies Charging Services España, SLU",4,100.0,chademo|iec62196T2|iec62196T2COMBO,onstreet,A-92,Autopista libre\Autovía
2023004107,ZUNDER Dir. Alicante - Torrent,39.400467,-0.49283,(ZUNDER) Grupo Easychargar SA,4,90.0,chademo|iec62196T2COMBO,onstreet,A-7,Autopista libre\Autovía
YQGTKLHTXC8GTEU980OK,TotalEnergies - Rest. Casa Pepe,38.41774,-3.498863,"TotalEnergies Charging Services España, SLU",6,100.0,chademo|iec62196T2|iec62196T2COMBO,onstreet,N-4A,Carretera convencional
2024005073,20XM32T8KK3AR00052,43.33845,-1.75422,"ENDESA X WAY, S.L.",3,50.0,chademo|iec62196T2|iec62196T2COMBO,openSpace,N-121-A,Carretera convencional
UHDH5OITSIDITJE0RGKH,"Repsol ES, CRED Sallavinera Dcho",41.745003,1.579205,REPSOL SOLUCIONES ENERGÉTICAS SA,1,50.0,chademo|iec62196T2|iec62196T2COMBO,openSpace,C-25,Autopista libre\Autovía
BTJC48H2LV77ELAW9YXQ,"Repsol ES, Santa Cruz S.L",42.344048,-7.981913,REPSOL SOLUCIONES ENERGÉTICAS SA,1,50.0,chademo|iec62196T2|iec62196T2COMBO,openSpace,N-120,Carretera convencional
2024004010,Hostal Soto,42.58513,-5.629951,WENEA EMOBILITY SERVICES S.L.,4,100.0,chademo|iec62196T2|iec62196T2COMBO,onstreet,N-120,Multicarril
2024006724,22XP22T3QQ1AN00823-,42.526028,-3.334111,"CEPSA COMERCIAL PETRÓLEO,S.A.U.",1,44.0,iec62196T2COMBO,other,AP-1,Autopista libre\Autovía
ZEJS8HRNYQOB8RIU2F2R,"Repsol ES, CRED ROBLEDO 2",43.437935,-5.79856,REPSOL SOLUCIONES ENERGÉTICAS SA,1,50.0,chademo|iec62196T2|iec62196T2COMBO,openSpace,A-66,Autopista libre\Autovía
2024001932,BA-Badajoz-005,38.875397,-6.952591,IBERDROLA CLIENTES S.A.U,4,50.0,chademo|iec62196T2|iec62196T2COMBO,openSpace,BA-20,Multicarril
2024005835,619340382000120,41.389275,1.944309,"ENDESA X WAY, S.L.",3,50.0,chademo|iec62196T2|iec62196T2COMBO,openSpace,N-340,Carretera convencional
ZNXCNFAREAKPJHZ5IRIC,"Repsol ES, CRED FUENLABRADA II DIR MADRID",40.259354,-3.761557,REPSOL SOLUCIONES ENERGÉTICAS SA,1,50.0,chademo|iec62196T2|iec62196T2COMBO,openSpace,A-42,Autopista libre\Autovía
PRXZTF2N8RJELRUSLZTU,E-H-Aracena-001,37.898064,-6.566156,IBERDROLA CLIENTES S.A.U,2,22.0,iec62196T2,openSpace,N-433,Carretera convencional
2024000849,LE-LaRobla-001,42.806454,-5.631977,IBERDROLA CLIENTES S.A.U,4,50.0,chademo|iec62196T2|iec62196T2COMBO,onstreet,N-630,Carretera convencional
2024007463,SHELL PLAZA ELIPTICA,40.386246,-3.7170293,Prio Recharge Sl.,2,60.0,iec62196T2COMBO,other,A-42,Autopista libre\Autovía
2025000433,Q8 Gasolinera Algeciras,36.14999,-5.454406,CHARGING TOGETHER SL,2,120.0,iec62196T2COMBO,onstreet,A-7S,Multicarril
2023003010,62121015980004,43.327003,-8.36378,"ENDESA X WAY, S.L.",3,50.0,chademo|iec62196T2|iec62196T2COMBO,openSpace,AC-12,Multicarril
FO2SSSPQ2Y6QXGEZZJGX,"Repsol ES, CRED Amorebieta Izq",43.230495,-2.753489,REPSOL SOLUCIONES ENERGÉTICAS SA,1,50.0,chademo|iec62196T2|iec62196T2COMBO,openSpace,AP-8,Autopista peaje
PYCTYJLIGLWNVDOAMUEL,TYSA FORD CAMAS,37.41829,-6.035008,ION SMART ENERGY 2000 SL,2,22.17,iec62196T2,openSpace,N-630,Multicarril
2023002240,El Pindal 2,43.374928,-4.500594,EDP CLIENTES SAU,1,50.0,chademo|iec62196T2|iec62196T2COMBO,onstreet,N-634,Carretera convencional
2024005056,20XP22T3KK4AL01122,38.962147,-3.304787,"ENDESA X WAY, S.L.",2,20.4,iec62196T2,openSpace,N-430,Carretera convencional
2023003344,61943050290015,41.824444,0.569217,"ENDESA X WAY, S.L.",3,50.0,chademo|iec62196T2|iec62196T2COMBO,openSpace,N-230,Carretera convencional
EJXTYXVYNHYI6GBPJHGB,"Repsol ES, CRED Castejon",42.136894,-1.699955,REPSOL SOLUCIONES ENERGÉTICAS SA,1,50.0,chademo|iec62196T2|iec62196T2COMBO,openSpace,N-232,Carretera convencional
YWPNJWAX2HOHVMP691LX,"Repsol ES, As Moas",43.35442,-8.393277,REPSOL SOLUCIONES ENERGÉTICAS SA,1,50.0,chademo|iec62196T2|iec62196T2COMBO,openSpace,AC-12,Multicarril
7AYFPTPVNR7WZ9I1UKTI,"Repsol ES, Amasa S.L.U",43.177235,-2.055118,REPSOL SOLUCIONES ENERGÉTICAS SA,1,50.0,chademo|iec62196T2|iec62196T2COMBO,openSpace,A-1,Autopista libre\Autovía
FQ7IN3FIJEUA9B0U9KCT,"Repsol ES, Auto-Servi Romero",39.56358,-1.212855,REPSOL SOLUCIONES ENERGÉTICAS SA,1,50.0,chademo|iec62196T2|iec62196T2COMBO,openSpace,N-3,Carretera convencional
2024004281,Bar Volante,42.49089,-6.121285,WENEA EMOBILITY SERVICES S.L.,2,100.0,iec62196T2COMBO,onstreet,N-6,Carretera convencional
2024004783,E-LE-Leon-009,42.58851,-5.62066,IBERDROLA CLIENTES S.A.U,2,150.0,iec62196T2COMBO,,N-120,Multicarril
O33DMUILCBOVGUFNL8DO,"Repsol ES, CRED Santa Cruz De Mudela",38.63611,-3.471416,REPSOL SOLUCIONES ENERGÉTICAS SA,1,33.0,chademo|iec62196T2|iec62196T2COMBO,openSpace,A-4,Autopista libre\Autovía
2024005213,3594000117,28.486076,-16.324078,"ENDESA X WAY, S.L.",3,22.0,chademo|iec62196T2|iec62196T2COMBO,openSpace,TF-5,Autopista libre\Autovía
K1C8I9OFOVDEQI6WJPSZ,El Pedernoso,39.48833,-2.74984,"H2PLT,S.A.",22,150.0,chademo|iec62196T2|iec62196T2COMBO,onstreet,N-301,Carretera convencional
2BMXF7DQKYMPVJNESA6X,Hotel Restaurante Mesón de Erosa by Porsche,42.02973,-7.18056,CHARGING TOGETHER SL,10,400.0,iec62196T2COMBO,openSpace,N-525,Carretera convencional
MIN8NCQXLSZ9YPRUXPQP,"Repsol ES, CRED BEJAR II",40.389664,-5.750808,REPSOL SOLUCIONES ENERGÉTICAS SA,2,180.0,chademo|iec62196T2|iec62196T2COMBO,openSpace,N-630A,Carretera convencional
2024006237,22XP22T3KKJAK00227,41.511925,-5.737205,"ENDESA X WAY, S.L.",2,11.0,iec62196T2,openSpace,ZA-20,Multicarril
2023004155,GALP Feces de Abaixo,41.82515,-7.425074,Punto Recargas SL,3,50.0,iec62196T2|iec62196T2COMBO,onstreet,N-532,Carretera convencional
XSYCPEJBHYYY0VX2ULVA,"Repsol ES, Maria Dolores Murillo Navarro",39.00737,-6.006145,REPSOL SOLUCIONES ENERGÉTICAS SA,1,50.0,chademo|iec62196T2|iec62196T2COMBO,openSpace,N-430,Carretera convencional
2024004161,Rest. Casa Consuelo,43.540142,-6.594661,"Wenea Services Spain, S.L.",4,110.0,chademo|iec62196T2|iec62196T2COMBO,onstreet,N-634,Carretera convencional
2024004570,Jonquera - Tramuntana,42.410637,2.8761978,"Galp Energía España, S.A.U.",1,150.0,iec62196T2COMBO,onstreet,N-2,Multicarril
2024004077,Rest. Valle Grande,39.175926,-6.62066,WENEA EMOBILITY SERVICES S.L.,4,100.0,chademo|iec62196T2|iec62196T2COMBO,onstreet,N-523,Carretera convencional
2024001871,E-SA-Bejar-002,40.39036,-5.748846,IBERDROLA CLIENTES S.A.U,6,22.0,iec62196T2,,N-630A,Carretera convencional
KIJ2YFBTKWK9LBZGFSX2,E-J-Villacarrillo-001,38.113525,-3.095912,IBERDROLA CLIENTES S.A.U,4,22.0,iec62196T2,,N-322,Carretera convencional
2024000021,S-Reocin-001,43.35543,-4.09482,IBERDROLA CLIENTES S.A.U,4,100.0,chademo|iec62196T2|iec62196T2COMBO,openSpace,A-8,Autopista libre\Autovía
2025000574,Hotel Puerta de Santillana,43.35543,-4.09482,CHARGING TOGETHER SL,4,100.0,chademo|iec62196T2|iec62196T2COMBO,openSpace,A-8,Autopista libre\Autovía
KLWHPYKKGCGBIXOJML0E,NIMA GRUP - AUDI TARRAGONA- EVBOX EdRR 1 Tarragona,41.114964,1.215361,"Etecnic Movilidad Electrica, SRL",4,207.0,chademo|iec62196T2|iec62196T2COMBO,other,N-340,Carretera convencional
2024000524,LU-Monterroso-001,42.792397,-7.832396,IBERDROLA CLIENTES S.A.U,2,22.0,iec62196T2,,N-640,Carretera convencional
2024005049,62023018540002,41.63638,-5.798451,"ENDESA X WAY, S.L.",3,50.0,chademo|iec62196T2|iec62196T2COMBO,openSpace,N-630,Carretera convencional
OTJJ0PMX2X6MS7CESTZU,Seur Alcaniz,41.040245,-0.126677,REPSOL SOLUCIONES ENERGÉTICAS SA,4,11.04,iec62196T2,openSpace,N-232B,Carretera convencional
2024005666,21XM32T7KK3AR00028,43.21111,-2.785833,"ENDESA X WAY, S.L.",3,50.0,chademo|iec62196T2|iec62196T2COMBO,openSpace,N-240,
2024000658,TE-Calaceite-001,41.013805,0.187076,IBERDROLA CLIENTES S.A.U,2,50.0,chademo|iec62196T2|iec62196T2COMBO,onstreet,N-420,Carretera convencional
2024002328,E-31-Orkoien-001,42.819748,-1.688151,IBERDROLA CLIENTES S.A.U,2,23.0,iec62196T2COMBO,openSpace,PA-30,Multicarril
2025000651,Iruñamóvil - Concesionario Oficial Audi,42.819748,-1.688151,CHARGING TOGETHER SL,2,150.0,iec62196T2COMBO,openSpace,PA-30,Multicarril
ZGRTLCRQMQQSXNPIFR1U,"Repsol ES, E.S. BORAGO DCHO (DOS BARRIOS)",39.87046,-3.477679,REPSOL SOLUCIONES ENERGÉTICAS SA,1,50.0,chademo|iec62196T2|iec62196T2COMBO,openSpace,A-4,Autopista libre\Autovía
2024006233,C6E15BCC22JQZHKFUF,41.511955,-5.737235,"ENDESA X WAY, S.L.",2,50.0,iec62196T2COMBO,openSpace,ZA-20,Multicarril
NHVJ2QGRBUJQKGLUWFH7,"Repsol ES, Área De Servicio Bertólez 2",42.313114,-7.866466,REPSOL SOLUCIONES ENERGÉTICAS SA,1,50.0,chademo|iec62196T2|iec62196T2COMBO,openSpace,N-525,Carretera convencional
2024004996,C6E15BCC21DZNGRWHU,43.4881,-8.202326,"ENDESA X WAY, S.L.",2,150.0,iec62196T2COMBO,openSpace,FE-13,Multicarril
2024002223,BI-Muskiz-002,43.32316,-3.124695,IBERDROLA CLIENTES S.A.U,3,50.0,chademo|iec62196T2|iec62196T2COMBO,,N-634,
OKEPNVSKUX5BS6NAXF2D,"Repsol ES, Maset S.A",42.31657,3.063787,REPSOL SOLUCIONES ENERGÉTICAS SA,1,50.0,chademo|iec62196T2|iec62196T2COMBO,openSpace,N-260,Carretera convencional
2025000542,Estación bp Cheyper,40.3682,-3.7209,CHARGING TOGETHER SL,8,150.0,chademo|iec62196T2COMBO,onstreet,A-42,Autopista libre\Autovía
2024003931,Rest. Mi Rinconcito,41.910942,-7.442649,WENEA EMOBILITY SERVICES S.L.,6,50.0,chademo|iec62196T2|iec62196T2COMBO,onstreet,N-532,Carretera convencional
2024000349,V-Cofrentes-001,39.229603,-1.058818,IBERDROLA CLIENTES S.A.U,4,50.0,chademo|iec62196T2|iec62196T2COMBO,onstreet,N-330A,Carretera convencional
2024001983,BAÑOS DE MONTEMAYOR,40.31742,-5.859735,"OESTE SOLUCIONES ENERGETICAS, S.L.",1,22.0,iec62196T2,onstreet,N-630,Carretera convencional
2024004417,ACCIONA - Legarda Logroño,42.711414,-1.7777059,ACCIONA Recarga,2,100.0,iec62196T2COMBO,onstreet,A-12,Autopista libre\Autovía
2024004170,Rest. El Huerto,43.54438,-7.080848,WENEA EMOBILITY SERVICES S.L.,4,100.0,chademo|iec62196T2|iec62196T2COMBO,onstreet,N-634,Carretera convencional
GU3GKPXIQ8AD4LT1QTFA,TotalEnergies - Bar Rest. La Trobada,42.59959,-0.857224,"TotalEnergies Charging Services España, SLU",4,100.0,chademo|iec62196T2|iec62196T2COMBO,onstreet,N-240,Carretera convencional
2024004975,E-MA-Manilva-001,36.36469,-5.229147,IBERDROLA CLIENTES S.A.U,4,22.0,iec62196T2,,A-7S,Multicarril
2024004251,Bar Rest. La Trobada,42.599594,-0.857265,WENEA EMOBILITY SERVICES S.L.,4,100.0,chademo|iec62196T2|iec62196T2COMBO,onstreet,N-240,Carretera convencional
2024004076,Rest. Picosa,40.955208,-5.692773,WENEA EMOBILITY SERVICES S.L.,4,200.0,chademo|iec62196T2|iec62196T2COMBO,onstreet,N-630,Carretera convencional
JE9ZAFCTO8DHRYJBGK5R,"Repsol ES, CRED Potosi",41.44307,2.205932,REPSOL SOLUCIONES ENERGÉTICAS SA,2,50.0,chademo|iec62196T2|iec62196T2COMBO,openSpace,B-10,Autopista libre\Autovía
2024005050,62046040080006,41.63635,-5.798421,"ENDESA X WAY, S.L.",3,50.0,chademo|iec62196T2|iec62196T2COMBO,openSpace,N-630,Carretera convencional
2023004088,Exit - L'Aldea,40.75308,0.606343,(ZUNDER) Grupo Easychargar SA,10,180.0,chademo|iec62196T2|iec62196T2COMBO,onstreet,N-340,Carretera convencional
2023003133,22XP22T3KKJAK00278,42.926003,-8.391931,"ENDESA X WAY, S.L.",2,22.0,iec62196T2,openSpace,N-634,Carretera convencional
AMDUDR614YDFO1DRXIII,"Repsol ES, Jacinto Manuel Miguel Santande",41.16891,-2.421546,REPSOL SOLUCIONES ENERGÉTICAS SA,1,50.0,chademo|iec62196T2|iec62196T2COMBO,openSpace,N-2,Carretera convencional
2024007309,Supermercado Consum Torrellano,38.29253,-0.5917,"ERANOVUM E-MOBILITY, S.L.",2,60.0,iec62196T2|iec62196T2COMBO,openSpace,N-340,Carretera convencional
2023002186,ES San Pelayo,43.393627,-6.063614,EDP CLIENTES SAU,1,50.0,chademo|iec62196T2|iec62196T2COMBO,onstreet,N-634,Carretera convencional
2023003356,62009007340007,42.15957,1.857582,"ENDESA X WAY, S.L.",2,10.53,iec62196T2,openSpace,C-16,Autopista libre\Autovía
2024000256,V-TavernesdeValdigna-002,39.077614,-0.243436,IBERDROLA CLIENTES S.A.U,1,50.0,chademo|iec62196T2COMBO,openSpace,N-332,Carretera convencional
IOYF80VW7UX0M74AV8GO,"Repsol ES, CRED Barajas II",40.449253,-3.565438,REPSOL SOLUCIONES ENERGÉTICAS SA,1,50.0,chademo|iec62196T2|iec62196T2COMBO,openSpace,A-2,Autopista libre\Autovía
3Q59PAB0X2RBWOMUK3TC,"Repsol ES, CRED Cáceres II",39.481743,-6.362858,REPSOL SOLUCIONES ENERGÉTICAS SA,1,50.0,chademo|iec62196T2|iec62196T2COMBO,openSpace,N-521,Multicarril
MHYEXSKQDUFEI9CPBRQG,TotalEnergies - E.S. BP Cubillas,37.285587,-3.675525,"TotalEnergies Charging Services España, SLU",4,100.0,chademo|iec62196T2|iec62196T2COMBO,onstreet,N-323A,Carretera convencional
ARKWYKGTZTTFFROTSSLP,"Repsol ES, Area De Servicio Godisa S.L",38.718063,-4.071291,REPSOL SOLUCIONES ENERGÉTICAS SA,1,50.0,chademo|iec62196T2|iec62196T2COMBO,openSpace,N-420,Carretera convencional
2024004459,PROXIMAMENTE ACCIONA - Tanatorio de Barcia,43.5372,-6.4970684,ACCIONA Recarga,2,22.0,iec62196T2,openSpace,N-634,Carretera convencional
6DJE4NNQPFTKR3UPZLV2,"Repsol ES, Campsa-Estaciones de Servicio S.A.",40.105133,-3.64514,REPSOL SOLUCIONES ENERGÉTICAS SA,1,50.0,chademo|iec62196T2|iec62196T2COMBO,openSpace,A-4,Autopista libre\Autovía
2024006391,"Manzanares, Spain",39.006496,-3.38313,Tesla Spain SLU,10,150.0,iec62196T2|iec62196T2COMBO,openSpace,N-430,Carretera convencional
2024004098,Rest. El Sequero,42.43187,-2.281125,WENEA EMOBILITY SERVICES S.L.,4,120.0,chademo|iec62196T2|iec62196T2COMBO,onstreet,N-232,Carretera convencional
2024004650,DISA VIA PENETRACION,28.45176,-16.261732,Prio Recharge Sl.,3,50.0,chademo|iec62196T2|iec62196T2COMBO,other,TF-4,Multicarril
5RVIVJC0EHYEEERML0IT,"Repsol ES-CL, DERIVADOS SANTA CRUZ S.L.",41.840622,-2.044228,REPSOL SOLUCIONES ENERGÉTICAS SA,1,50.0,chademo|iec62196T2|iec62196T2COMBO,openSpace,N-122,Carretera convencional
2024001853,E-M-SanMartinDeValdeiglesias-004,40.358932,-4.409769,IBERDROLA CLIENTES S.A.U,6,22.0,iec62196T2,,N-403A,Carretera convencional
2023002271,APK2 Primo de Rivera,39.471996,-6.377461,EDP CLIENTES SAU,2,7.4,iec62196T2,onstreet,N-521,Multicarril
2024004423,ACCIONA - Las Vegas - Burgos - CCS,42.363636,-3.6273334,ACCIONA Recarga,2,120.0,iec62196T2COMBO,openSpace,N-1,Multicarril
FBJVGUNJ0DYBTKZ6YZ6A,"Repsol ES, Navarro",38.246628,-6.300466,REPSOL SOLUCIONES ENERGÉTICAS SA,1,50.0,chademo|iec62196T2|iec62196T2COMBO,openSpace,N-630,Carretera convencional
TKSMDGSLAJCRIYZPKHZQ,TotalEnergies - Rest. Can Costa,42.240337,2.970225,"TotalEnergies Charging Services España, SLU",4,150.0,chademo|iec62196T2|iec62196T2COMBO,onstreet,N-2A,Carretera convencional
2024005830,22XP22T3KK4AK00009,38.135082,-6.694215,"ENDESA X WAY, S.L.",2,21.0,iec62196T2,openSpace,N-435,Carretera convencional
2024007374,Campoastur Grado,43.39631,-6.05398,"ERANOVUM E-MOBILITY, S.L.",1,22.0,iec62196T2,openSpace,N-634,Carretera convencional
2024006849,E-CU-Cuenca-001,40.07513,-2.150406,IBERDROLA CLIENTES S.A.U,6,22.0,iec62196T2,,A-40,Autopista libre\Autovía
RLJ7UK5LUQZK79MEXQHY,"Repsol ES, Edificaciones Tifan S.L 2",40.552567,-3.897427,REPSOL SOLUCIONES ENERGÉTICAS SA,1,50.0,chademo|iec62196T2|iec62196T2COMBO,openSpace,A-6,Autopista libre\Autovía
2024001042,E-Z-Cariñena-003,41.362667,-1.206406,IBERDROLA CLIENTES S.A.U,2,7.3,iec62196T2,,N-330,Carretera convencional
2024003412,Burger King - Orihuela Costa,37.93714,-0.72134,Punto Recargas SL,2,150.0,iec62196T2COMBO,onstreet,N-332,Multicarril
2024004280,Rest. Don Pepe,42.037926,-7.054695,"Wenea Services Spain, S.L.",4,100.0,chademo|iec62196T2|iec62196T2COMBO,onstreet,N-525,Carretera convencional
4KWMDN42DWUCMTNMMAHP,SMAP_Ses Voltes Parc de la Mar_5,39.565624,2.6469657,"EMAYA, S.A.",1,22.17,iec62196T2,inBuilding,Ma-19,Autopista libre\Autovía
2024003932,DIPBA Villafranca de los Barros,38.564724,-6.34943,WENEA EMOBILITY SERVICES S.L.,3,50.0,chademo|iec62196T2|iec62196T2COMBO,onstreet,N-630,Carretera convencional
LSXECKKGSAN6LIY3XW30,TotalEnergies - Rest. El Sequero,42.431847,-2.281103,"TotalEnergies Charging Services España, SLU",4,100.0,chademo|iec62196T2|iec62196T2COMBO,onstreet,N-232,Carretera convencional
9DESNXSEM0MUKIJNAM82,Seur Tarragona,41.114624,1.203081,REPSOL SOLUCIONES ENERGÉTICAS SA,4,11.0,iec62196T2,openSpace,N-340,Carretera convencional
2025000693,Telenauto - Concesionario Audi León,42.58853,-5.620492,CHARGING TOGETHER SL,2,150.0,iec62196T2COMBO,,N-120,Multicarril
EQ6B9UCGWF73ADKSEDM7,"Repsol ES, AREA SERVICIO LA RETAMA",43.328358,-4.190896,REPSOL SOLUCIONES ENERGÉTICAS SA,2,50.0,chademo|iec62196T2|iec62196T2COMBO,openSpace,N-634,Carretera convencional
2024007101,"Via Favència, 21",41.441242,2.164861,"BARCELONA DE SERVEIS MUNICIPALS, SA",1,50.0,chademo|iec62196T2|iec62196T2COMBO,onstreet,B-20,Autopista libre\Autovía
TDFQNRYKIX0INHA38M9S,"Repsol ES, CRED Roda De Berá",41.17787,1.490892,REPSOL SOLUCIONES ENERGÉTICAS SA,1,50.0,chademo|iec62196T2|iec62196T2COMBO,openSpace,N-340,Carretera convencional
12RGNN7PAHJO9YYTLC7S,E.S. Beroil Fuentecén,41.626133,-3.878592,"Wenea Services Spain, S.L.",2,25.0,iec62196T2COMBO,onstreet,N-122,Carretera convencional
2023004073,Hostal Rio Deva II - Unquera,43.374832,-4.500147,(ZUNDER) Grupo Easychargar SA,4,360.0,iec62196T2COMBO,onstreet,N-634,Carretera convencional
2024000586,SS-Olaberria-001,43.039326,-2.21688,IBERDROLA CLIENTES S.A.U,2,50.0,chademo|iec62196T2|iec62196T2COMBO,onstreet,A-1,Autopista libre\Autovía
YJEF3VZIDNWNBHKTKABN,"Repsol ES, Gasóleos Teruel",40.36329,-1.145989,REPSOL SOLUCIONES ENERGÉTICAS SA,2,50.0,iec62196T2|iec62196T2COMBO,openSpace,N-234,Carretera convencional
2024006730,HYC22BZ1881A-,41.316444,2.070028,"CEPSA COMERCIAL PETRÓLEO,S.A.U.",1,150.0,iec62196T2COMBO,other,C-31,Autopista libre\Autovía
2024006731,HYC22BZ1814A-,41.316444,2.070028,"CEPSA COMERCIAL PETRÓLEO,S.A.U.",1,150.0,iec62196T2COMBO,other,C-31,Autopista libre\Autovía
NPSXTU37KHYZWVLJXSSO,A-ONDARA-012,38.776222,0.084395,IBERDROLA CLIENTES S.A.U,2,100.0,iec62196T2COMBO,openSpace,N-332,Carretera convencional
2STSXWXZAZRDRMRBXZQI,TotalEnergies - Rest. Paris-Lisboa,41.30149,-5.224889,"TotalEnergies Charging Services España, SLU",4,100.0,chademo|iec62196T2|iec62196T2COMBO,onstreet,N-620,Carretera convencional
2024003467,E-A-Alicante-024,38.344135,-0.528378,IBERDROLA CLIENTES S.A.U,2,22.0,iec62196T2,openSpace,N-330,Carretera convencional
RY5JEY3VANIXE11YHLNV,"Repsol ES, CRED Alovera",40.57964,-3.235689,REPSOL SOLUCIONES ENERGÉTICAS SA,1,50.0,chademo|iec62196T2|iec62196T2COMBO,openSpace,A-2,Autopista libre\Autovía
83VNGKILPG9ZRNNQZSRU,SMAP_Ses Voltes Parc de la Mar_6,39.565643,2.6469424,"EMAYA, S.A.",1,22.17,iec62196T2,inBuilding,Ma-19,Autopista libre\Autovía
2023002275,Casintra,43.38382,-5.758603,EDP CLIENTES SAU,3,200.0,iec62196T2|iec62196T2COMBO,,N-634,Carretera convencional
2023002098,Centro Porsche Valencia CP01,39.476,-0.484402,Porsatecnic S.L.,1,320.0,iec62196T2COMBO,other,A-3,Autopista libre\Autovía
2024004416,ACCIONA - Hotel Restaurant Hostal el Carme,41.647026,1.1031373,ACCIONA Recarga,2,50.0,chademo|iec62196T2|iec62196T2COMBO,openSpace,N-2,Carretera convencional
01LYNCWOOB1XUBHZYXIE,"Repsol ES, Footwork S.L.",39.487656,-0.468213,REPSOL SOLUCIONES ENERGÉTICAS SA,1,50.0,chademo|iec62196T2|iec62196T2COMBO,openSpace,V-11,Autopista libre\Autovía
2024004150,Rest. El Álamo,37.797626,-4.809957,WENEA EMOBILITY SERVICES S.L.,4,100.0,chademo|iec62196T2|iec62196T2COMBO,onstreet,A-4,Autopista libre\Autovía
CGNYIOYGQKEJ4SSAVJTK,TotalEnergies - Hotel Rest. Acueducto Gran Ruta,39.077377,-5.575518,"TotalEnergies Charging Services España, SLU",4,100.0,chademo|iec62196T2|iec62196T2COMBO,onstreet,N-430,Carretera convencional
JY958CQWGRO2O3J26LCC,"Repsol ES, GRUPO MAICAS HOSTALES",40.35772,-1.136062,REPSOL SOLUCIONES ENERGÉTICAS SA,1,50.0,chademo|iec62196T2|iec62196T2COMBO,openSpace,N-234,Carretera convencional
2024007293,Centro Comercial N4,37.53007,-5.08593,"ERANOVUM E-MOBILITY, S.L.",2,120.0,iec62196T2|iec62196T2COMBO,openSpace,A-4,Autopista libre\Autovía
AJ62FXNI06N5CR3IFBZI,"Repsol ES, Indálica Copec S.A.",37.3209,-3.297419,REPSOL SOLUCIONES ENERGÉTICAS SA,1,50.0,chademo|iec62196T2|iec62196T2COMBO,openSpace,A-92,Autopista libre\Autovía
5JZXX5FJYVWN4XGOW8WD,TotalEnergies - Hotel San Blas,43.16971,-2.609232,"TotalEnergies Charging Services España, SLU",4,100.0,chademo|iec62196T2|iec62196T2COMBO,onstreet,N-634,
2023002095,Centro Porsche Bilbao Estación de carga 2,43.2446,-2.88003,Ditec Hanstein SA,1,320.0,iec62196T2COMBO,other,N-634,
2023002094,Centro Porsche Bilbao Estación de carga 1,43.2446,-2.88003,Ditec Hanstein SA,1,320.0,iec62196T2COMBO,other,N-634,
2024000289,A-SantaPola-005,38.232796,-0.551085,IBERDROLA CLIENTES S.A.U,4,7.3,iec62196T2,openSpace,N-332,Carretera convencional
2024004044,Rest. Paris-Lisboa,41.301476,-5.224892,WENEA EMOBILITY SERVICES S.L.,4,100.0,chademo|iec62196T2|iec62196T2COMBO,onstreet,N-620,Carretera convencional
WMH47PR47PG31SBXBV6J,"Repsol ES, El Portillo M.I.",42.570038,-5.519555,REPSOL SOLUCIONES ENERGÉTICAS SA,1,50.0,chademo|iec62196T2|iec62196T2COMBO,openSpace,N-601,Carretera convencional
2024005511,22XP22T3KKJAK00005,41.57641,-0.645332,"ENDESA X WAY, S.L.",2,20.0,iec62196T2,openSpace,N-2,Carretera convencional
Q2FVIPP7DLZ77SH4VCJ2,"Repsol ES, CRED RIOSECO II",42.69129,-5.770646,REPSOL SOLUCIONES ENERGÉTICAS SA,1,50.0,chademo|iec62196T2|iec62196T2COMBO,openSpace,AP-66,Autopista peaje
5ZMMRVBUAFCFVHSIJZV7,Repsol Es. Las Pedrizas,36.812946,-4.441931,REPSOL SOLUCIONES ENERGÉTICAS SA,1,50.0,chademo|iec62196T2|iec62196T2COMBO,openSpace,A-45,Autopista libre\Autovía
2024006175,22XP22T3KKJAK00039,41.8407,-2.043744,"ENDESA X WAY, S.L.",2,21.0,iec62196T2,openSpace,N-122,Carretera convencional
GHKY9LQRP36YKZCHAOCM,E.S. Beroil Rubena,42.376446,-3.59101,"Wenea Services Spain, S.L.",2,50.0,iec62196T2COMBO,onstreet,N-1,Carretera convencional
2023003540,61922022550003,38.87783,-6.94595,"ENDESA X WAY, S.L.",3,50.0,chademo|iec62196T2|iec62196T2COMBO,openSpace,BA-20,Multicarril
ES5CRZPEABKJ04AKZJLU,SMAP_Ses Voltes Parc de la Mar_7,39.56566,2.646919,"EMAYA, S.A.",1,22.17,iec62196T2,inBuilding,Ma-19,Autopista libre\Autovía
7GAQVIVMOLOB20UPY0FA,"Repsol ES, El Molar S.A",40.71318,-3.577692,REPSOL SOLUCIONES ENERGÉTICAS SA,1,50.0,chademo|iec62196T2|iec62196T2COMBO,openSpace,A-1A,Multicarril
ZZL92INOTZWGKIPACEWR,TotalEnergies - Rest. Casa Consuelo,43.540096,-6.594704,"TotalEnergies Charging Services España, SLU",4,50.0,chademo|iec62196T2|iec62196T2COMBO,onstreet,N-634,Carretera convencional
JJRHKXK7P7QJMWE3D7WI,TotalEnergies - Cash Superiku,38.515522,-3.494726,"TotalEnergies Charging Services España, SLU",4,100.0,chademo|iec62196T2|iec62196T2COMBO,onstreet,N-4,Carretera convencional
2024000615,O-LLanes-003,43.38573,-4.571241,IBERDROLA CLIENTES S.A.U,2,50.0,chademo|iec62196T2|iec62196T2COMBO,openSpace,N-634,Carretera convencional
2023004128,Cepsa I Dir.Francia - Mutilva,42.800457,-1.6115102,(ZUNDER) Grupo Easychargar SA,4,360.0,iec62196T2COMBO,onstreet,PA-30,Multicarril
2024004167,Hotel San Blas,43.16969,-2.609233,WENEA EMOBILITY SERVICES S.L.,4,100.0,chademo|iec62196T2|iec62196T2COMBO,onstreet,N-634,
2023003771,61923022630004,37.47615,-4.58906,"ENDESA X WAY, S.L.",3,50.0,chademo|iec62196T2|iec62196T2COMBO,openSpace,N-331,Carretera convencional
2024003998,Hotel Rest. Acueducto Gran Ruta,39.07741,-5.575436,WENEA EMOBILITY SERVICES S.L.,4,100.0,chademo|iec62196T2|iec62196T2COMBO,onstreet,N-430,Carretera convencional
2024004664,DISA AUTOPISTA 21,27.898664,-15.404947,Prio Recharge Sl.,2,22.0,iec62196T2,other,GC-1,Autopista libre\Autovía
2024005606,C6E06BCC22WEXPLZRE,41.57644,-0.645362,"ENDESA X WAY, S.L.",2,60.0,iec62196T2COMBO,openSpace,N-2,Carretera convencional
2023004101,Alar del Rey - Puerta de la Montaña,42.71779,-4.291774,(ZUNDER) Grupo Easychargar SA,6,50.0,chademo|iec62196T2|iec62196T2COMBO,onstreet,N-611,Carretera convencional
2024006480,ACCIONA - A Cañiza - Casa da Cultura,42.21529,-8.268682,ACCIONA Recarga,2,22.0,iec62196T2,onstreet,N-120,Carretera convencional
1GK7RMHWTWKN8ZDQ35G6,Las Médulas - ORBIS,42.488617,-6.773433,"Etecnic Movilidad Electrica, SRL",1,7.0,iec62196T2,other,N-536,Carretera convencional
81LMFMRLHYLXN4CLKCQH,"Repsol ES, CRED Orcasitas",40.37843,-3.718714,REPSOL SOLUCIONES ENERGÉTICAS SA,1,50.0,chademo|iec62196T2|iec62196T2COMBO,openSpace,A-42,Autopista libre\Autovía
4BLX2R6SUSAU5H0T9USH,SMAP_Ses Voltes Parc de la Mar_8,39.565678,2.6468956,"EMAYA, S.A.",1,22.17,iec62196T2,inBuilding,Ma-19,Autopista libre\Autovía
YXPUJA0HHPFRBEQZOEA6,"Repsol ES, Hermanos Gimenez Ochando C.B.",39.474678,-1.124505,REPSOL SOLUCIONES ENERGÉTICAS SA,1,50.0,chademo|iec62196T2|iec62196T2COMBO,openSpace,N-322,Carretera convencional
2024004782,O-Luarca-001,43.530006,-6.557352,IBERDROLA CLIENTES S.A.U,4,50.0,chademo|iec62196T2|iec62196T2COMBO,onstreet,N-634,Carretera convencional
SZOC9YVWE2XQYIQJUQIQ,"Repsol ES, CRED La Roda Autovia",39.20085,-2.144451,REPSOL SOLUCIONES ENERGÉTICAS SA,1,50.0,chademo|iec62196T2|iec62196T2COMBO,openSpace,A-31,Autopista libre\Autovía
2023002099,Centro Porsche Valencia CP02,39.476,-0.484446,Porsatecnic S.L.,1,320.0,iec62196T2COMBO,other,A-3,Autopista libre\Autovía
2024006840,E-PO-Redondela-001,42.28272,-8.618046,IBERDROLA CLIENTES S.A.U,4,22.0,iec62196T2,,N-552,Carretera convencional
2023003796,61943050290003,42.83653,-1.586904,"ENDESA X WAY, S.L.",3,50.0,chademo|iec62196T2|iec62196T2COMBO,openSpace,PA-30,Multicarril
IE1OMLN5GCEZXQKIZIYO,TotalEnergies - Parrillada Barral,43.234436,-8.1295,"TotalEnergies Charging Services España, SLU",4,100.0,chademo|iec62196T2|iec62196T2COMBO,onstreet,N-6,Carretera convencional
2025000573,PEREZ RUMBAO VIGO - CONCESIONARIO AUDI,42.21848,-8.703101,CHARGING TOGETHER SL,2,130.0,iec62196T2COMBO,,A-55,Multicarril
2024002381,E-36-Vigo-002,42.21848,-8.703101,IBERDROLA CLIENTES S.A.U,2,150.0,iec62196T2COMBO,,A-55,Multicarril
9BGD78C4YGCEOPDN5HCR,US_305_Madridejos II,39.51866,-3.5242448,"PLENOIL, S.L.",1,60.0,iec62196T2COMBO,onstreet,A-4,Autopista libre\Autovía
2024003991,Hotel Mirasierra,41.18812,-3.583655,WENEA EMOBILITY SERVICES S.L.,7,100.0,chademo|iec62196T2|iec62196T2COMBO,onstreet,N-1A,Carretera convencional
2024004784,MA-Malaga-020,36.686985,-4.46161,IBERDROLA CLIENTES S.A.U,2,100.0,iec62196T2COMBO,,MA-20,Autopista libre\Autovía
2024000367,BU-ArandadeDuero-003,41.676563,-3.68506,IBERDROLA CLIENTES S.A.U,2,50.0,chademo|iec62196T2COMBO,onstreet,N-1A,Carretera convencional
87SL0ISEU560NGKAZ8QC,Repsol Es. Carburantes Yagüe S.L,41.62732,-5.173078,REPSOL SOLUCIONES ENERGÉTICAS SA,1,50.0,chademo|iec62196T2|iec62196T2COMBO,openSpace,N-6,Carretera convencional
2023002552,61947051020036,43.382565,-5.744795,"ENDESA X WAY, S.L.",2,22.0,iec62196T2,openSpace,N-634,Carretera convencional
2023000087,E.S. LOS IBONES,41.66084,-0.9271814,"ZOILO RIOS, S.A.",1,50.0,chademo|iec62196T2|iec62196T2COMBO,other,N-232,Multicarril
2025000054,ESTACION SERVICIO CASTEJON DEL PUENTE - Moeve,41.950005,0.15355359,"ESTACION SERVICIO JAIME I, S.A.",1,50.0,chademo|iec62196T2|iec62196T2COMBO,,N-240,Carretera convencional
2024005656,2112240162,42.752377,-0.51557,"ENDESA X WAY, S.L.",2,150.0,iec62196T2COMBO,openSpace,N-330A,Carretera convencional
LSURZGADRSHOPFKENXHP,SMAP_Ses Voltes Parc de la Mar_9,39.565697,2.6468723,"EMAYA, S.A.",1,22.17,iec62196T2,inBuilding,Ma-19,Autopista libre\Autovía
FOEPVAMZI36TJO41JPKF,"Repsol ES, Bertólez S.L",42.313038,-7.865342,REPSOL SOLUCIONES ENERGÉTICAS SA,1,50.0,chademo|iec62196T2|iec62196T2COMBO,openSpace,N-525,Carretera convencional
TTVWPZGUIFY6VIEFOYCL,"Repsol ES, CRED Valtierra M.I.",42.20028,-1.675974,REPSOL SOLUCIONES ENERGÉTICAS SA,1,50.0,chademo|iec62196T2|iec62196T2COMBO,openSpace,AP-15,Autopista peaje
XLWUI7QYDKMQUNVL38DU,Club de Ocio Nudos,38.974022,-3.958631,"Wenea Services Spain, S.L.",3,100.0,iec62196T2|iec62196T2COMBO,onstreet,N-430,Carretera convencional
AVLVH6KRXGVNVOQXLBH5,TotalEnergies - Rest. Don Pepe,42.03794,-7.05463,"TotalEnergies Charging Services España, SLU",4,100.0,chademo|iec62196T2|iec62196T2COMBO,onstreet,N-525,Carretera convencional
GJ9N8ZOE4WWAQY4BLLFC,"Repsol ES, CRED Estepa",37.302097,-4.880273,REPSOL SOLUCIONES ENERGÉTICAS SA,1,50.0,chademo|iec62196T2|iec62196T2COMBO,openSpace,A-92,Autopista libre\Autovía
2024001818,Gasolinera E.leclerc Pinto,40.239777,-3.690338,Punto Recargas SL,2,150.0,iec62196T2COMBO,onstreet,A-4,Autopista libre\Autovía
2023000026,CHARGEVITE - MALPICA,41.665634,-0.8086724,CHARGEVITE ENERGY SLU,1,22.0,iec62196T1,inBuilding,A-2,Autopista libre\Autovía
DLEI2LYV78DXJ1VNFSUV,"Repsol ES, M.BELTRAN E HIJOS",40.802696,-0.837117,REPSOL SOLUCIONES ENERGÉTICAS SA,1,50.0,chademo|iec62196T2|iec62196T2COMBO,openSpace,N-420,Carretera convencional
HNVPUWIEERIWLR5CJVQN,TotalEnergies - Rest. El Carcau,39.76863,-0.208954,"TotalEnergies Charging Services España, SLU",4,100.0,chademo|iec62196T2|iec62196T2COMBO,onstreet,N-340,Carretera convencional
AMXAUW6AHNWJ3FEQIS0P,Picos de Europa La Fonseya - ORBIS,43.13628,-5.038546,"Etecnic Movilidad Electrica, SRL",1,7.0,iec62196T2,other,N-625,Carretera convencional
IGKWMHOIDN3ZZESCW3HC,"Repsol ES, CRED Trinidad",41.44721,2.195104,REPSOL SOLUCIONES ENERGÉTICAS SA,1,50.0,chademo|iec62196T2|iec62196T2COMBO,openSpace,B-20,Autopista libre\Autovía
2024006408,"Granada, Spain",37.18115,-3.927585,Tesla Spain SLU,10,150.0,iec62196T2|iec62196T2COMBO,openSpace,A-92,Autopista libre\Autovía
2024004232,Hotel Camino de Santiago,42.332817,-3.561735,WENEA EMOBILITY SERVICES S.L.,4,100.0,chademo|iec62196T2|iec62196T2COMBO,onstreet,N-120,Carretera convencional
RQ8YT3PGZMG68QKGKJND,SMAP_Ses Voltes Parc de la Mar_10,39.565712,2.646849,"EMAYA, S.A.",1,22.17,iec62196T2,inBuilding,Ma-19,Autopista libre\Autovía
2024000114,MA-Malaga-050,36.69759,-4.43851,IBERDROLA CLIENTES S.A.U,2,22.0,iec62196T2,onstreet,MA-22,Multicarril
2024000123,NA-Zizurmayor-001,42.792717,-1.68422,IBERDROLA CLIENTES S.A.U,4,180.0,iec62196T2COMBO,onstreet,A-12,Autopista libre\Autovía
2024006171,C6E06BCC22RTDHAGNN,41.840675,-2.043714,"ENDESA X WAY, S.L.",2,60.0,iec62196T2COMBO,openSpace,N-122,Carretera convencional
2024006392,"Cullar, Spain",37.553677,-2.613384,Tesla Spain SLU,8,150.0,iec62196T2|iec62196T2COMBO,onstreet,A-92N,Autopista libre\Autovía
0S9SNBBYAX5TI0YO5JKW,"Repsol ES, La Junquera",42.39862,2.880505,REPSOL SOLUCIONES ENERGÉTICAS SA,2,180.0,chademo|iec62196T2COMBO,openSpace,N-2,Multicarril
2024006407,"Almaraz, Spain",39.791306,-5.697251,Tesla Spain SLU,10,150.0,iec62196T2|iec62196T2COMBO,openSpace,N-5,Carretera convencional
65HWCW9GYW4GITT4XGEB,"Repsol ES, Los Olivos",38.02356,-3.77988,REPSOL SOLUCIONES ENERGÉTICAS SA,1,50.0,chademo|iec62196T2|iec62196T2COMBO,openSpace,N-323,Carretera convencional
2023002971,20XM32T8KK4AR00015,43.487812,-8.204868,"ENDESA X WAY, S.L.",3,50.0,chademo|iec62196T2|iec62196T2COMBO,openSpace,FE-13,Multicarril
2024006728,22XP22T3QQ1AN00814-,42.65061,-3.069667,"CEPSA COMERCIAL PETRÓLEO,S.A.U.",1,44.0,iec62196T2COMBO,other,AP-1,Autopista libre\Autovía
2024006729,22XP22T3QQ1AN00844-,42.65061,-3.069667,"CEPSA COMERCIAL PETRÓLEO,S.A.U.",1,44.0,iec62196T2COMBO,other,AP-1,Autopista libre\Autovía
2024004009,Cash Superiku,38.51557,-3.494741,WENEA EMOBILITY SERVICES S.L.,4,140.0,chademo|iec62196T2|iec62196T2COMBO,onstreet,N-4,Carretera convencional
1VJTVPM87R1R4ZDKU80I,SMAP_Ses Voltes Parc de la Mar_11,39.56573,2.6468256,"EMAYA, S.A.",1,22.17,iec62196T2,inBuilding,Ma-19,Autopista libre\Autovía
2NXMS1KGEUD9S9DE5U4E,"Repsol ES, Bastiments Alcocebre S.L",40.296238,0.226067,REPSOL SOLUCIONES ENERGÉTICAS SA,1,50.0,chademo|iec62196T2|iec62196T2COMBO,openSpace,N-340,Carretera convencional
G42UIZB1GZBIUVH8TZTS,"Repsol ES, CRED Eskoriatza",43.01694,-2.535529,REPSOL SOLUCIONES ENERGÉTICAS SA,1,50.0,chademo|iec62196T2|iec62196T2COMBO,openSpace,AP-1,Autopista peaje
67ARI5GBONDOHSGYTPMH,"Repsol ES, CRED Elviña",43.33353,-8.402651,REPSOL SOLUCIONES ENERGÉTICAS SA,1,50.0,chademo|iec62196T2|iec62196T2COMBO,openSpace,AC-11,Multicarril
2025000502,ES_BP_VIA FAVENCIA - BARCELONA,41.44361,2.170945,CHARGING TOGETHER SL,2,150.0,iec62196T2COMBO,onstreet,B-20,Autopista libre\Autovía
Y1H07DBDL5HYJBJILCAG,"Repsol ES, Pinto Autovía",40.246105,-3.690528,REPSOL SOLUCIONES ENERGÉTICAS SA,2,50.0,chademo|iec62196T2COMBO,openSpace,A-4,Autopista libre\Autovía
2024007480,CENTRO CÍVICO SOTOPALACIOS,42.435112,-3.6812942,"FENIE ENERGIA, SA",1,22.0,domesticE|iec62196T2,openSpace,N-623,Carretera convencional
2024000793,Allego COMERCIO Y ASISTENCIA - LEON,42.588028,-5.621684,Allego Spain S.L.U,1,50.0,chademo|iec62196T2COMBO,other,N-120,Multicarril
2023002061,GALP Posada de Llanes - Dirección Oviedo,43.43266,-4.858186,Punto Recargas SL,2,50.0,iec62196T2COMBO,onstreet,A-8,Autopista libre\Autovía
2023002814,62048041880013,37.903023,-6.2208,"ENDESA X WAY, S.L.",3,50.0,chademo|iec62196T2|iec62196T2COMBO,openSpace,N-630,Carretera convencional
2024004283,E.S. BP Cubillas,37.285664,-3.675543,WENEA EMOBILITY SERVICES S.L.,4,100.0,chademo|iec62196T2|iec62196T2COMBO,onstreet,N-323A,Carretera convencional
2024000978,LU-Barreiros-002,43.53962,-7.263064,IBERDROLA CLIENTES S.A.U,2,50.0,chademo|iec62196T2COMBO,openSpace,N-642,Carretera convencional
YQNZ1MHDGFWSXBNSLSZU,"Repsol ES, CRED Estepona",36.463676,-5.038765,REPSOL SOLUCIONES ENERGÉTICAS SA,1,50.0,chademo|iec62196T2|iec62196T2COMBO,openSpace,A-7S,Autopista libre\Autovía
2024000069,A-Elche-011,38.259014,-0.726308,IBERDROLA CLIENTES S.A.U,2,50.0,chademo|iec62196T2COMBO,openSpace,N-340,Multicarril
2024000708,E-13-Manzanares-001,39.022034,-3.373286,IBERDROLA CLIENTES S.A.U,2,22.0,iec62196T2,onstreet,A-4,Autopista libre\Autovía
2023003607,61946052780009,39.775322,2.989318,"ENDESA X WAY, S.L.",3,50.0,chademo|iec62196T2|iec62196T2COMBO,openSpace,Ma-13,Autopista libre\Autovía
2024000077,A-Petrer-002,38.49028,-0.778572,IBERDROLA CLIENTES S.A.U,4,50.0,chademo|iec62196T2|iec62196T2COMBO,openSpace,A-31,Autopista libre\Autovía
0ABYOR885E4US6RFRJFV,TotalEnergies - Hotel Mirasierra,41.1881,-3.583617,"TotalEnergies Charging Services España, SLU",4,150.0,iec62196T2COMBO,onstreet,N-1A,Carretera convencional
8VY1UMXTUN19PH3NWJ3R,SMAP_Ses Voltes Parc de la Mar_12,39.56575,2.6468022,"EMAYA, S.A.",1,22.17,iec62196T2,inBuilding,Ma-19,Autopista libre\Autovía
2024004987,E-BA-Badajoz-004,38.874916,-6.953651,IBERDROLA CLIENTES S.A.U,2,50.0,iec62196T2|iec62196T2COMBO,,BA-20,Multicarril
2024006846,E-O-LosCampos-polaDeLena-001,43.146984,-5.824464,IBERDROLA CLIENTES S.A.U,6,22.0,iec62196T2,openSpace,A-66,Autopista libre\Autovía
7JJQN3BSRUOIMOM23X3C,"Repsol ES, CASABLANCA-ARAGÓN",41.640594,-0.756763,REPSOL SOLUCIONES ENERGÉTICAS SA,1,35.0,chademo|iec62196T2|iec62196T2COMBO,openSpace,A-2,Autopista libre\Autovía
2024001884,E-M-Getafe-012,40.31568,-3.735925,IBERDROLA CLIENTES S.A.U,2,22.0,iec62196T2,,A-42,Autopista libre\Autovía
2025000558,ES_BP_BELLATERRA MD,41.493042,2.09921,CHARGING TOGETHER SL,2,150.0,iec62196T2COMBO,onstreet,AP-7N,Autopista peaje
2024000916,AV-AVILA-015,40.644238,-4.700341,IBERDROLA CLIENTES S.A.U,2,50.0,chademo|iec62196T2COMBO,onstreet,N-403,Multicarril
W6URZEGWLMMPACGMFTAX,VP 00005 Castiello de Jaca,42.626865,-0.547614,REPSOL SOLUCIONES ENERGÉTICAS SA,6,60.0,iec62196T2|iec62196T2COMBO,openSpace,N-330,Carretera convencional
BRXB6DXCXR0EUQQQNOEE,"Mercadona, Anglada, Lleida",42.70354,0.794504,REPSOL SOLUCIONES ENERGÉTICAS SA,4,7.6,iec62196T2,openSpace,N-230,Carretera convencional
JOGXZN4BMWQILRZ4QTRU,"Mercadona, Ctra. Almarcha, Cuenca",39.407837,-2.4207,REPSOL SOLUCIONES ENERGÉTICAS SA,4,22.17,iec62196T2,openSpace,N-310,Carretera convencional
HJED9AXVOWXE3IUUA94Y,TotalEnergies - Rest. El Pradillo,42.565277,-5.498366,"TotalEnergies Charging Services España, SLU",4,100.0,chademo|iec62196T2|iec62196T2COMBO,onstreet,N-601,Carretera convencional
IRSWSGHV9NYIUDFKRN3E,"Repsol ES, CRED ROBLEDO 1",43.435658,-5.798854,REPSOL SOLUCIONES ENERGÉTICAS SA,1,50.0,chademo|iec62196T2|iec62196T2COMBO,openSpace,A-66,Autopista libre\Autovía
XDABSWIQQGAEBXKR2I1W,Calle Zapote 0. Fase II. P.I. Arinaga,27.861578,-15.426226,Consejo Insular de la Energía de Gran Canaria,2,50.0,chademo|iec62196T2COMBO,onstreet,GC-1,Autopista libre\Autovía
2024005657,22XP22T3KKJAK00006,42.75243,-0.515603,"ENDESA X WAY, S.L.",2,21.0,iec62196T2,openSpace,N-330A,Carretera convencional
2024004111,E.S. Petrocar Zafra,38.42995,-6.413041,WENEA EMOBILITY SERVICES S.L.,4,150.0,chademo|iec62196T2|iec62196T2COMBO,onstreet,N-432,Multicarril
2024000138,SA-Montalvo-001,40.940186,-5.668186,IBERDROLA CLIENTES S.A.U,2,50.0,chademo|iec62196T2|iec62196T2COMBO,openSpace,N-630,Carretera convencional
2024002371,E-MA-Malaga-007,36.681248,-4.462357,IBERDROLA CLIENTES S.A.U,2,22.0,iec62196T2,,MA-20,Autopista libre\Autovía
2024006737,C8A233S023CNWAUQEH-,28.009832,-15.390083,"CEPSA COMERCIAL PETRÓLEO,S.A.U.",1,180.0,iec62196T2COMBO,other,GC-1,Autopista libre\Autovía
2024001821,Restaurante Moma,37.216476,-3.691467,Punto Recargas SL,3,50.0,iec62196T2|iec62196T2COMBO,onstreet,N-432,Carretera convencional
2024006044,C6E06BCC22QAGCYMBU,41.09063,0.644103,"ENDESA X WAY, S.L.",2,60.0,iec62196T2COMBO,openSpace,N-420A,Carretera convencional
2024004162,Parrillada Barral,43.234478,-8.12946,WENEA EMOBILITY SERVICES S.L.,4,70.0,chademo|iec62196T2|iec62196T2COMBO,onstreet,N-6,Carretera convencional
2024006429,"La Jonquera, Spain",42.40268,2.879961,Tesla Spain SLU,12,250.0,iec62196T2COMBO,openSpace,N-2,Multicarril
2024003520,Túnel del Cadí,42.346046,1.832766,IONITY GmbH Sucursal en España,6,350.0,iec62196T2COMBO,openSpace,C-16,Autopista peaje
2024006766,PLAZA DE TOROS,40.336617,-1.104042,"FENIE ENERGIA, SA",1,22.0,iec62196T2,openSpace,N-223,Carretera convencional
2023003376,61924023490001,41.266937,1.248363,"ENDESA X WAY, S.L.",3,50.0,chademo|iec62196T2|iec62196T2COMBO,openSpace,N-240,Carretera convencional
OGYKP2MIPISX4UY76O8E,MercaBilbao - Basauri,43.231552,-2.88675,CHARGING TOGETHER SL,4,200.0,iec62196T2COMBO,,A-8,Autopista libre\Autovía
2024005160,62023018540001,42.442497,0.070645,"ENDESA X WAY, S.L.",3,50.0,chademo|iec62196T2|iec62196T2COMBO,openSpace,N-260,Carretera convencional
EDXMGFQAI88MCFOSC39P,TotalEnergies - E.S. Petrocar Zafra,38.429974,-6.413042,"TotalEnergies Charging Services España, SLU",4,150.0,chademo|iec62196T2|iec62196T2COMBO,onstreet,N-432,Multicarril
2023003582,19XP22T3KK4AZ00967,37.92561,-6.71509,"ENDESA X WAY, S.L.",2,22.0,iec62196T2,openSpace,N-433,Carretera convencional
OZBVVPCYW9Q8TLPZAGPW,"Repsol ES, CRED Sallavinera Izq",41.745747,1.579963,REPSOL SOLUCIONES ENERGÉTICAS SA,1,50.0,chademo|iec62196T2|iec62196T2COMBO,openSpace,C-25,Autopista libre\Autovía
2024006715,EL BARCO DE ÁVILA,40.358887,-5.5234694,"FENIE ENERGIA, SA",1,7.4,iec62196T2,openSpace,N-110,Carretera convencional
2023002220,ES Villaviciosa,43.488945,-5.444836,EDP CLIENTES SAU,1,50.0,iec62196T2|iec62196T2COMBO,onstreet,N-632,Carretera convencional
2023003814,61945052640005,41.43393,-4.666631,"ENDESA X WAY, S.L.",3,50.0,chademo|iec62196T2|iec62196T2COMBO,openSpace,N-601,Carretera convencional
XWSDHNUAP7DUAEO3UMRA,"Repsol, DC - Aldea del Cano",39.286087,-6.320399,REPSOL SOLUCIONES ENERGÉTICAS SA,2,50.0,chademo|iec62196T2|iec62196T2COMBO,onstreet,N-630,Carretera convencional
2024003989,Rest. El Pradillo,42.56526,-5.4984,WENEA EMOBILITY SERVICES S.L.,4,100.0,chademo|iec62196T2|iec62196T2COMBO,onstreet,N-601,Carretera convencional
37DA4DRLUTS6EOUJZAXQ,"Repsol ES, EL POLIGONO",41.53376,0.413226,REPSOL SOLUCIONES ENERGÉTICAS SA,1,50.0,chademo|iec62196T2|iec62196T2COMBO,openSpace,A-2,Autopista libre\Autovía
VDAM2KUMNKRPQCS7S7AX,"Repsol ES, FOOTWORK SL",38.25681,-0.747799,REPSOL SOLUCIONES ENERGÉTICAS SA,1,50.0,chademo|iec62196T2|iec62196T2COMBO,openSpace,N-340,Multicarril
UWPKRCWAMUZVF7UG5VWK,"Repsol ES, Area de Servicio Legorreta",43.07888,-2.156183,REPSOL SOLUCIONES ENERGÉTICAS SA,1,50.0,chademo|iec62196T2|iec62196T2COMBO,openSpace,A-1,Autopista libre\Autovía
2024004956,E-CS-Vinaros-001,40.482197,0.473385,IBERDROLA CLIENTES S.A.U,6,22.0,iec62196T2,,N-340A,Carretera convencional
2024000298,O-Lena-001,43.106342,-5.817404,IBERDROLA CLIENTES S.A.U,4,50.0,chademo|iec62196T2|iec62196T2COMBO,openSpace,N-630,Carretera convencional
NHEZ5CNDJFSWGK1VMMHL,"Repsol ES, Villabona Sa",43.179886,-2.054352,REPSOL SOLUCIONES ENERGÉTICAS SA,1,50.0,chademo|iec62196T2|iec62196T2COMBO,openSpace,A-1,Autopista libre\Autovía
2024000490,A-Elche-012,38.272537,-0.668533,IBERDROLA CLIENTES S.A.U,11,50.0,chademo|iec62196T2|iec62196T2COMBO,,N-340,Carretera convencional
2024004085,Rest. El Lagar de Milagros,41.573154,-3.70457,WENEA EMOBILITY SERVICES S.L.,8,100.0,chademo|iec62196T2|iec62196T2COMBO,onstreet,N-1,Carretera convencional
2023003285,62046040080003,40.774628,0.659809,"ENDESA X WAY, S.L.",3,50.0,chademo|iec62196T2|iec62196T2COMBO,openSpace,N-340,Carretera convencional
2024005891,SN2210260044,37.393394,-3.027175,"ENDESA X WAY, S.L.",3,60.0,chademo|iec62196T2|iec62196T2COMBO,openSpace,A-92N,Autopista libre\Autovía
BHU6CJTFYCUULBFFCG5M,Clun Ribadeo (Os Irmandiños),43.545673,-7.15622,CHARGING TOGETHER SL,8,360.0,chademo|iec62196T2COMBO,openSpace,N-634,Carretera convencional
2023002114,Centro Porsche Marbella Estación de carga 1,36.4955,-4.95022,Marbella Premium SL,1,320.0,iec62196T2COMBO,other,A-7S,Autopista libre\Autovía
2024006376,"Torrent Southbound, Spain",39.400635,-0.493216,Tesla Spain SLU,2,150.0,iec62196T2|iec62196T2COMBO,onstreet,A-7,Autopista libre\Autovía
2024007445,S-BEZANA-001,43.434746,-3.914942,IBERDROLA CLIENTES S.A.U,4,50.0,chademo|iec62196T2|iec62196T2COMBO,onstreet,A-67,Autopista libre\Autovía
2024003565,MLC Estación de Servicio Elgoibar,43.22136,-2.406524,Punto Recargas SL,2,150.0,iec62196T2COMBO,onstreet,N-634,
2024004894,SHELL CAPMANY MS (RÍO),42.380924,2.8892117,Prio Recharge Sl.,2,150.0,iec62196T2COMBO,onstreet,N-2,Carretera convencional
2023003585,61921022560003,43.27624,-1.700864,"ENDESA X WAY, S.L.",3,50.0,chademo|iec62196T2|iec62196T2COMBO,openSpace,N-121-A,Carretera convencional
CTNNU7K18FYAVJT3QAD8,CAMPING1,41.16175,1.440501,"Etecnic Movilidad Electrica, SRL",2,22.0,iec62196T2,other,N-340,Carretera convencional
NYA5SXX0NBCCBE4D3KJX,"Repsol, Isabel Torres Santander, Vía pública",43.453693,-3.871444,REPSOL SOLUCIONES ENERGÉTICAS SA,1,7.36,iec62196T2,onstreet,S-20,Autopista libre\Autovía
2023002119,Centro Porsche Tenerife CP 1,28.4514,-16.2915,"Jarada Motor, S.L.",1,320.0,iec62196T2COMBO,other,TF-5,Autopista libre\Autovía
2024004046,Hotel Los Olivos,40.314114,-3.691478,WENEA EMOBILITY SERVICES S.L.,7,140.0,chademo|iec62196T2|iec62196T2COMBO,onstreet,A-4,Autopista libre\Autovía
2024006430,"Algeciras, Spain",36.134953,-5.461627,Tesla Spain SLU,8,250.0,iec62196T2COMBO,openSpace,A-7S,Multicarril
2023003943,61925025260004,40.21,-3.681,"ENDESA X WAY, S.L.",3,50.0,chademo|iec62196T2|iec62196T2COMBO,openSpace,A-4,Autopista libre\Autovía
2023002079,GALP Gironès - Norte,41.907253,2.77326,Punto Recargas SL,1,12.0,iec62196T2,onstreet,AP-7N,Autopista peaje
LA2XOXRMJ73J0VJ2BLVH,E.S. Beroil Estepar,42.27846,-3.891755,"Wenea Services Spain, S.L.",2,20.0,iec62196T2COMBO,onstreet,N-620A,Carretera convencional
BRCTNJPFWT8Z2EAZ8JRD,"Repsol ES,  CRED Quintanapalla MD",42.403908,-3.549281,REPSOL SOLUCIONES ENERGÉTICAS SA,2,180.0,iec62196T2COMBO,openSpace,AP-1,Autopista libre\Autovía
2024005490,SERVICIOS PUENTE LIÑARES SL,42.698254,-8.459119,SERVICIOS PUENTE LIÑARES SL,1,26.0,chademo,openSpace,N-640,Carretera convencional
2024005149,61945052640011,41.66097,-4.76665,"ENDESA X WAY, S.L.",3,50.0,chademo|iec62196T2|iec62196T2COMBO,openSpace,N-601,Carretera convencional
2024001836,E-OU-OCarballiño-001,42.430687,-8.067169,IBERDROLA CLIENTES S.A.U,4,22.0,iec62196T2,,N-541,Carretera convencional
2023002544,22XP22T3KKJAK00246,37.177303,-3.614421,"ENDESA X WAY, S.L.",2,22.0,iec62196T2,openSpace,GR-30,Autopista libre\Autovía
2025000426,ES_BP_LA SAFOR II,39.040337,-0.228151,CHARGING TOGETHER SL,2,150.0,iec62196T2COMBO,onstreet,AP-7N,Autopista libre\Autovía
FFDKXZNSXOU63NC7LQVO,Av. Pallaresa - J. Martorell,41.45463,2.20539,IBERDROLA CLIENTES S.A.U,4,60.0,domesticF|iec62196T2|iec62196T2COMBO,openSpace,B-20,Autopista libre\Autovía
2024000503,CR-Puertollano-004,38.703835,-4.100013,IBERDROLA CLIENTES S.A.U,2,50.0,chademo|iec62196T2COMBO,openSpace,N-420,Carretera convencional
0U2UXOGZDVMXLO61BBCZ,"Repsol ES, CRED Lopidana Dcho",42.87734,-2.712676,REPSOL SOLUCIONES ENERGÉTICAS SA,2,150.0,iec62196T2COMBO,openSpace,A-1,Autopista libre\Autovía
2024004112,Hotel Alaiz,42.73663,-1.632925,WENEA EMOBILITY SERVICES S.L.,4,100.0,chademo|iec62196T2|iec62196T2COMBO,onstreet,N-121,
2024005985,21XP22T3KKJAK00525,39.473995,-6.398598,"ENDESA X WAY, S.L.",2,21.0,iec62196T2,openSpace,N-630,Multicarril
2023002241,Hotel Casa Junco,43.380356,-4.554662,EDP CLIENTES SAU,1,7.4,iec62196T2,onstreet,N-634,Carretera convencional
2023002146,IONITY Logroño Norte,42.4503,-2.369494,IONITY GmbH Sucursal en España,2,350.0,iec62196T2COMBO,onstreet,AP-68,Autopista peaje
2025000653,A66  El Caleyu,43.32506,-5.87612,CHARGING TOGETHER SL,8,180.0,iec62196T2COMBO,onstreet,A-66,Autopista libre\Autovía
SUIF5UJK0KXQ22Z7NWSW,"Repsol ES, CRED Racc",41.382557,2.106467,REPSOL SOLUCIONES ENERGÉTICAS SA,1,50.0,chademo|iec62196T2|iec62196T2COMBO,openSpace,B-23,Autopista libre\Autovía
2024003864,B-Avinyonetdepenedes-001,41.36179,1.776414,IBERDROLA CLIENTES S.A.U,4,120.0,iec62196T2|iec62196T2COMBO,onstreet,N-340,Carretera convencional
2025000674,"Avinyonet del Penedes, Carrer Doctor Parellada",41.36179,1.776414,CHARGING TOGETHER SL,4,120.0,iec62196T2|iec62196T2COMBO,onstreet,N-340,Carretera convencional
2024006997,Galp - Gironès Norte,41.90677,2.773299,Punto Recargas SL,2,50.0,iec62196T2COMBO,onstreet,AP-7N,Autopista peaje
2023003778,61925025260003,40.774384,-2.994463,"ENDESA X WAY, S.L.",3,50.0,chademo|iec62196T2|iec62196T2COMBO,openSpace,A-2,Autopista libre\Autovía
2023004070,ZUNDER Dir. Castellón - Torrent,39.400677,-0.491817,(ZUNDER) Grupo Easychargar SA,6,90.0,chademo|iec62196T2|iec62196T2COMBO,onstreet,A-7,Autopista libre\Autovía
2024005640,62047041180017,42.407925,0.395056,"ENDESA X WAY, S.L.",3,50.0,chademo|iec62196T2|iec62196T2COMBO,openSpace,N-260,Carretera convencional
LMRLGA7KAYPFONPIMFO1,E-V-QuartDePoblet-002,39.47247,-0.501581,IBERDROLA CLIENTES S.A.U,2,22.0,iec62196T2,openSpace,A-3,Autopista libre\Autovía
2024005074,19XM32T8KK3AR00056,42.49943,-1.673145,"ENDESA X WAY, S.L.",3,50.0,chademo|iec62196T2|iec62196T2COMBO,openSpace,N-121,
KQ4C9MWRJKBIJMTAE8SJ,Hotelet - EKOENERGETYKA EdRR 1,41.09048,1.094045,"Etecnic Movilidad Electrica, SRL",2,103.5,chademo|iec62196T2|iec62196T2COMBO,other,A-7,Autopista libre\Autovía
HEE3IMQANJOFHSY3VXFO,Parking La Multa. Hosp. Universitario - Parkia,28.45409,-16.290758,"Wenea Services Spain, S.L.",4,22.0,iec62196T2,onstreet,TF-5,Autopista libre\Autovía
2024002397,E-CR-CiudadReal-002,39.00117,-3.928287,IBERDROLA CLIENTES S.A.U,6,22.0,iec62196T2,,N-401,Carretera convencional
3NNHLI76P4KV85CZKQLQ,E-SS-Aitze-001,43.27793,-2.17097,IBERDROLA CLIENTES S.A.U,6,22.0,iec62196T2,openSpace,AP-8,Autopista peaje
N7WBHADCTDPJXVX0NJXP,"Repsol ES, MIFAMI IV GASOLINERAS S.L.",41.0908,1.094971,REPSOL SOLUCIONES ENERGÉTICAS SA,1,50.0,chademo|iec62196T2|iec62196T2COMBO,openSpace,A-7,Autopista libre\Autovía
2023002115,Centro Porsche Marbella Estación de carga 2,36.4955,-4.95027,Marbella Premium SL,1,320.0,iec62196T2COMBO,other,A-7S,Autopista libre\Autovía
WYAEA92DOHWS2NDJEX1J,"Repsol, Grupo Antolín, Parking",42.362694,-3.632955,REPSOL SOLUCIONES ENERGÉTICAS SA,2,7.36,iec62196T2,openSpace,N-1,Multicarril
YEFHYKH8QFDFWGVPXSYX,"Repsol ES, CRED Zubieta",43.252766,-2.021427,REPSOL SOLUCIONES ENERGÉTICAS SA,3,50.0,chademo|iec62196T2|iec62196T2COMBO,openSpace,A-1,Autopista libre\Autovía
UGZPCNZRFKAYMKMGZXG7,TotalEnergies - Rest. Las Vegas,39.287247,-6.321517,"TotalEnergies Charging Services España, SLU",8,200.0,chademo|iec62196T2|iec62196T2COMBO,onstreet,N-630,Carretera convencional
2024005703,21XP22T3KKJAK00597,39.473972,-6.398588,"ENDESA X WAY, S.L.",2,21.0,iec62196T2,openSpace,N-630,Multicarril
2024006047,22XP22T3KKJAK00301,41.09065,0.644013,"ENDESA X WAY, S.L.",2,21.0,iec62196T2,openSpace,N-420A,Carretera convencional
6CX6NDLY3GI1PSSVFGY8,"Repsol ES, CRED Torrelodones",40.56826,-3.917357,REPSOL SOLUCIONES ENERGÉTICAS SA,1,50.0,chademo|iec62196T2|iec62196T2COMBO,openSpace,A-6,Autopista libre\Autovía
2025000597,BADAJOZ - CENTROWAGEN AUDI,38.874863,-6.953573,CHARGING TOGETHER SL,2,150.0,iec62196T2COMBO,openSpace,BA-20,Multicarril
2024006411,"Zaragoza, Spain",41.625343,-1.009737,Tesla Spain SLU,20,250.0,iec62196T2|iec62196T2COMBO,openSpace,A-2,Autopista libre\Autovía
LCXI6FMGDBYRAICNTWJW,TotalEnergies - Hotel Los Olivos,40.314007,-3.69143,"TotalEnergies Charging Services España, SLU",7,100.0,chademo|iec62196T2|iec62196T2COMBO,onstreet,A-4,Autopista libre\Autovía
2024005078,62022018090043,28.142254,-15.428997,"ENDESA X WAY, S.L.",1,7.4,iec62196T2,openSpace,GC-1 AM,Multicarril
2024000749,P-VentadeBaños-001,41.900192,-4.518805,IBERDROLA CLIENTES S.A.U,4,50.0,chademo|iec62196T2|iec62196T2COMBO,openSpace,A-62,Autopista libre\Autovía
2024004277,CC Parque Oleiros,43.321175,-8.316465,"Wenea Services Spain, S.L.",6,100.0,iec62196T2|iec62196T2COMBO,onstreet,N-6,Carretera convencional
BDYF02ELPZCPB0OHP2U7,"Repsol ES, Lence Torres",42.98814,-7.535613,REPSOL SOLUCIONES ENERGÉTICAS SA,1,50.0,chademo|iec62196T2|iec62196T2COMBO,openSpace,LU-11,Multicarril
2024004457,ACCIONA - Balcón de Júcar,39.09007,-0.537396,ACCIONA Recarga,2,50.0,chademo|iec62196T2|iec62196T2COMBO,onstreet,A-7,Autopista libre\Autovía
2024001838,NA-Tajonar-001,42.775543,-1.628231,IBERDROLA CLIENTES S.A.U,2,50.0,chademo|iec62196T2COMBO,openSpace,PA-30,Multicarril
2024007024,SOBRARBE MOTOR S.L.,42.410755,0.152696,"FENIE ENERGIA, SA",1,22.0,iec62196T2,openSpace,N-260,Carretera convencional
UAJTMLUIFA1EBBRRSKJ3,TotalEnergies - Cafeteria El Poligono,43.534954,-6.512693,"TotalEnergies Charging Services España, SLU",4,100.0,chademo|iec62196T2|iec62196T2COMBO,onstreet,N-634,Carretera convencional
2025000489,JV_Porsche HPC_HR ABADESA,42.30732,-3.702918,CHARGING TOGETHER SL,8,350.0,chademo|iec62196T2COMBO,,A-1,Autopista libre\Autovía
FM9QXLNYTGIHFFENL2RA,"Repsol ES, CRED Bellvei",41.2348,1.565754,REPSOL SOLUCIONES ENERGÉTICAS SA,1,50.0,chademo|iec62196T2|iec62196T2COMBO,openSpace,N-340,Carretera convencional
3YSS3ZCZFMP1RQI6UFAF,"Repsol, DC - Salorino",39.480495,-7.006085,REPSOL SOLUCIONES ENERGÉTICAS SA,2,50.0,chademo|iec62196T2|iec62196T2COMBO,onstreet,N-521,Carretera convencional
DFE0CV0281NGMMCUOOAA,SELBA - Martorell EdRSR 3,41.471725,1.911494,"Etecnic Movilidad Electrica, SRL",2,22.0,iec62196T2,other,Enlace AP-7/A-2 (Martorell),Autopista libre\Autovía
2023002739,SM Consum - San Joan Av. Muchamiel 141,38.407974,-0.4395056,"ERANOVUM E-MOBILITY, S.L.",4,30.0,iec62196T2|iec62196T2COMBO,openSpace,A-70,Autopista libre\Autovía
2023003913,62009004500046,28.454124,-16.290747,"ENDESA X WAY, S.L.",1,7.4,iec62196T2,openSpace,TF-5,Autopista libre\Autovía
2023002809,20XM32T7KK4AR00227,38.272427,-0.668756,"ENDESA X WAY, S.L.",3,50.0,chademo|iec62196T2|iec62196T2COMBO,openSpace,N-340,Carretera convencional
2023002808,20XM32T7KK4AR00225,38.272427,-0.668755,"ENDESA X WAY, S.L.",3,50.0,chademo|iec62196T2|iec62196T2COMBO,openSpace,N-340,Carretera convencional
2025000652,F. Tomé - Concesionario Oficial Audi,40.45017,-3.56892,CHARGING TOGETHER SL,2,150.0,iec62196T2COMBO,openSpace,A-2,Autopista libre\Autovía
2024002049,E-28-Madrid-032,40.45017,-3.56892,IBERDROLA CLIENTES S.A.U,2,130.0,iec62196T2COMBO,openSpace,A-2,Autopista libre\Autovía
2023003916,62009004500056,28.45412,-16.29074,"ENDESA X WAY, S.L.",1,7.4,iec62196T2,openSpace,TF-5,Autopista libre\Autovía
2023003749,61806002140015,37.793808,-1.428134,"ENDESA X WAY, S.L.",2,10.53,iec62196T2,openSpace,A-7,Autopista libre\Autovía
2024000458,VA-Valladolid-031,41.616333,-4.705924,IBERDROLA CLIENTES S.A.U,1,7.0,domesticF|iec62196T2,onstreet,VA-30,Autopista libre\Autovía
9JXQTE1S0HTSMCXFDLQH,"Repsol ES, CRED Casablanca Norte",41.64069,-0.754753,REPSOL SOLUCIONES ENERGÉTICAS SA,1,50.0,chademo|iec62196T2|iec62196T2COMBO,openSpace,A-2,Autopista libre\Autovía
2024000848,LE-LEON-025,42.5871,-5.5591,IBERDROLA CLIENTES S.A.U,4,22.0,iec62196T2,openSpace,N-120,Multicarril
2023002138,IONITY Girona,41.89873,2.770511,IONITY GmbH Sucursal en España,4,350.0,iec62196T2COMBO,onstreet,N-156,Carretera convencional
2024003519,Girona,41.89873,2.770511,IONITY GmbH Sucursal en España,2,350.0,iec62196T2COMBO,onstreet,N-156,Carretera convencional
2024005079,62022018090031,28.14227,-15.428982,"ENDESA X WAY, S.L.",1,7.4,iec62196T2,openSpace,GC-1 AM,Multicarril
